City_ID,City,Lat,Lng,Max Temp,Humidity,Cloudiness,Wind Speed,Country,Date
0,ulsteinvik,62.3432,5.8487,1.84,75,12,2.68,NO,1701973038
1,belen,36.4891,36.2233,10.22,100,75,2.57,TR,1701973075
2,saipan,15.1355,145.701,27.39,78,20,6.17,MP,1701972859
3,grytviken,-54.2811,-36.5092,0.21,86,70,11.28,GS,1701973076
4,iskateley,67.6803,53.1512,-14.43,96,100,3.58,RU,1701973076
5,sar-e pul,35.8333,66.1667,7.55,27,100,0.85,AF,1701973076
6,kota belud,6.351,116.4305,25.23,91,99,2.1,MY,1701973076
7,avarua,-21.2078,-159.775,25.03,73,75,8.23,CK,1701973076
8,albany,42.6001,-73.9662,0.85,81,98,0.45,US,1701972985
9,mount gambier,-37.8333,140.7667,17.51,56,100,2.08,AU,1701973077
10,ilulissat,69.2167,-51.1,0.01,55,20,2.57,GL,1701973077
11,kone,-21.0595,164.8658,22.46,73,100,2.15,NC,1701972872
12,kuqa,41.7278,82.9364,4.22,36,64,2.61,CN,1701973077
13,bilibino,68.0546,166.4372,-36.96,100,91,0.95,RU,1701973077
14,iqaluit,63.7506,-68.5145,-12.15,84,20,7.2,CA,1701973077
15,sidney,-33.8679,151.2073,21.61,85,81,3.09,AU,1701972972
16,port-aux-francais,-49.35,70.2167,4.08,74,74,13.35,TF,1701973078
17,tura,25.5198,90.2201,16.81,97,100,2.42,IN,1701972873
18,lycksele,64.5954,18.6735,-7.07,93,100,2.57,SE,1701973078
19,catia la mar,10.6038,-67.0303,30.83,84,59,3.67,VE,1701973078
20,utrik,11.2278,169.8474,27.48,81,59,10.79,MH,1701972926
21,branson,36.6437,-93.2185,19.63,44,0,7.72,US,1701973079
22,blackmans bay,-43.0167,147.3167,11.4,89,100,1.25,AU,1701973079
23,fontem,5.4685,9.8818,21.9,73,98,0.52,CM,1701973079
24,kodiak,57.79,-152.4072,1.73,80,0,4.63,US,1701973074
25,villa huidobro,-34.8383,-64.5869,30.62,24,0,4.04,AR,1701973079
26,prieska,-29.6641,22.7474,28.37,14,0,4.68,ZA,1701973079
27,kota,25.1833,75.8333,18.79,59,0,1.35,IN,1701973079
28,huatabampo,26.8333,-109.6333,26.65,21,0,1.79,MX,1701973080
29,itaunja,27.0833,80.9167,17.99,57,8,1.76,IN,1701973080
30,ushuaia,-54.8,-68.3,12.79,62,0,9.77,AR,1701973080
31,ust-tsilma,65.441,52.1498,-29.1,99,61,1.34,RU,1701973080
32,ghanzi,-21.5667,21.7833,30.8,25,68,4.14,BW,1701973080
33,badger,64.8,-147.5333,-22.01,77,20,0.0,US,1701973080
34,lihue,21.9789,-159.3672,21.58,89,0,2.57,US,1701973080
35,ola,59.5833,151.2833,-11.51,79,100,6.23,RU,1701973081
36,awjilah,29.1081,21.2869,19.64,26,100,2.64,LY,1701973081
37,leava,-14.3,-178.1667,28.07,78,68,5.9,WF,1701973081
38,mezhdurechenskiy,59.6,65.9333,-32.74,95,7,1.72,RU,1701973081
39,fisterra,42.9049,-9.2629,16.12,82,100,7.14,ES,1701973081
40,puerto natales,-51.7236,-72.4875,16.25,44,0,4.63,CL,1701972839
41,bredasdorp,-34.5322,20.0403,19.85,75,0,4.13,ZA,1701973082
42,richards bay,-28.783,32.0377,23.04,81,81,4.78,ZA,1701973082
43,khiri mat,16.8333,99.8,23.75,81,19,2.01,TH,1701973082
44,taltal,-25.4,-70.4833,19.95,67,14,4.12,CL,1701972983
45,georgetown,5.4112,100.3354,25.96,95,20,1.54,MY,1701973082
46,elin pelin,42.6667,23.6,1.76,93,100,4.12,BG,1701973082
47,puerto baquerizo moreno,-0.9,-89.6,26.55,78,75,6.17,EC,1701973083
48,yurga,55.7231,84.8861,-24.17,98,100,1.99,RU,1701973083
49,ribeira grande,38.5167,-28.7,18.22,77,20,8.05,PT,1701973083
50,quezon,7.7303,125.0989,22.03,94,33,1.79,PH,1701973084
51,aljezur,37.3191,-8.8033,16.29,93,100,2.99,PT,1701973084
52,touros,-5.1989,-35.4608,29.23,64,49,6.29,BR,1701973084
53,aasiaat,68.7098,-52.8699,-10.39,86,93,2.04,GL,1701973084
54,tamanrasset,22.785,5.5228,18.95,12,0,2.57,DZ,1701973084
55,severnoye,56.3491,78.3619,-37.5,100,13,1.73,RU,1701973084
56,yellowknife,62.456,-114.3525,-10.71,92,75,2.57,CA,1701973085
57,alofi,-19.0595,-169.9187,25.94,94,30,2.06,NU,1701972902
58,margaret river,-33.95,115.0667,14.4,73,65,5.24,AU,1701973085
59,atafu village,-8.5421,-172.5159,28.75,75,100,2.68,TK,1701973085
60,enewetak,11.3474,162.3373,27.75,77,87,9.34,MH,1701972883
61,aykhal,66.0,111.5,-26.11,99,100,2.4,RU,1701973085
62,minas de marcona,-15.2119,-75.1103,21.86,51,76,6.61,PE,1701973086
63,ballina,-28.8667,153.5667,20.43,89,2,1.51,AU,1701973086
64,tual,-5.6667,132.75,28.88,70,87,0.79,ID,1701973086
65,constantia,44.1833,28.65,1.5,94,100,9.14,RO,1701972901
66,edinburgh of the seven seas,-37.0676,-12.3116,14.92,81,100,7.71,SH,1701973086
67,waitangi,-43.9535,-176.5597,12.68,87,36,8.56,NZ,1701973086
68,papatowai,-46.5619,169.4708,10.26,68,66,4.11,NZ,1701972922
69,tsimasham,27.0989,89.536,6.19,96,100,1.04,BT,1701972923
70,isangel,-19.55,169.2667,23.81,73,100,5.9,VU,1701973087
71,ust-nera,64.5667,143.2,-37.67,88,75,0.76,RU,1701973087
72,nikel,69.4128,30.222,-15.9,93,89,3.57,RU,1701973087
73,qaqortoq,60.7167,-46.0333,1.89,62,100,3.62,GL,1701973087
74,adamstown,-25.066,-130.1015,22.65,77,31,5.69,PN,1701973087
75,mejit,10.2753,170.8646,27.64,82,96,10.69,MH,1701973087
76,argo,37.6333,22.7333,13.77,73,38,1.91,GR,1701973088
77,dashitou,43.3067,128.5114,-7.8,78,51,2.2,CN,1701973088
78,kodinsk,58.6881,99.1844,-35.87,98,16,0.99,RU,1701973088
79,adrar,20.5022,-10.0711,23.6,9,92,3.68,MR,1701973088
80,bethel,41.3712,-73.414,2.52,66,100,2.57,US,1701972970
81,sandnessjoen,66.0217,12.6316,-0.88,69,75,2.06,NO,1701973088
82,la passe,45.5549,-0.8967,9.45,98,100,6.09,FR,1701972907
83,chauk,20.8833,94.8167,22.99,72,61,2.13,MM,1701973089
84,olonkinbyen,70.9221,-8.7187,-1.5,76,75,4.5,SJ,1701973089
85,new glasgow,45.5834,-62.6486,-0.12,75,96,7.1,CA,1701973089
86,axim,4.8699,-2.2405,27.36,76,82,3.23,GH,1701973089
87,tidjikja,18.5564,-11.4271,26.03,11,87,1.88,MR,1701973090
88,kharhial,20.2833,82.7667,20.32,94,85,1.09,IN,1701973090
89,dryden,49.7833,-92.7503,0.16,86,75,4.12,CA,1701972866
90,sinabang,2.4803,96.3801,26.27,85,100,1.36,ID,1701973090
91,egilsstadir,65.2653,-14.3948,-1.05,69,75,6.17,IS,1701973090
92,wailua homesteads,22.0669,-159.378,21.24,91,0,2.57,US,1701972945
93,haiku-pauwela,20.9219,-156.3051,25.02,82,20,0.45,US,1701973091
94,longyearbyen,78.2186,15.6401,-3.09,74,40,10.29,SJ,1701972872
95,adler,43.43,39.92,11.09,81,75,3.13,RU,1701973091
96,talnakh,69.4865,88.3972,-33.38,94,60,1.76,RU,1701972899
97,isafjordur,66.0755,-23.124,3.02,65,40,10.29,IS,1701972877
98,stanley,54.868,-1.6985,4.77,96,75,4.63,GB,1701973091
99,zambezi,-13.5432,23.1047,21.7,79,74,3.51,ZM,1701973092
100,college,64.8569,-147.8028,-21.96,77,20,0.0,US,1701973092
101,oued lill,36.8341,10.0406,12.66,76,20,0.51,TN,1701973092
102,nanao,37.05,136.9667,6.85,78,99,3.05,JP,1701973092
103,saint-philippe,-21.3585,55.7679,23.77,87,51,4.06,RE,1701973092
104,puerto ayora,-0.7393,-90.3518,31.98,80,60,4.57,EC,1701973093
105,invercargill,-46.4,168.35,8.61,74,70,3.45,NZ,1701973093
106,pandan,14.0453,124.1694,26.9,69,97,4.08,PH,1701973093
107,colares,38.7992,-9.4469,16.29,97,20,11.18,PT,1701973093
108,suva,-18.1416,178.4415,24.71,94,40,0.0,FJ,1701973093
109,olinda,-8.0089,-34.8553,28.85,70,40,5.14,BR,1701973094
110,ghat,24.9647,10.1728,18.78,26,0,4.04,LY,1701973094
111,el calafate,-50.3408,-72.2768,15.45,44,35,2.1,AR,1701973094
112,guarapari,-20.6667,-40.4975,29.94,68,4,7.92,BR,1701973094
113,krivosheino,57.3431,83.9261,-29.71,98,100,1.39,RU,1701973095
114,chaihe,44.7667,129.7,-12.84,84,55,0.76,CN,1701973095
115,pangkalanbuun,-2.6833,111.6167,23.55,96,100,1.02,ID,1701973095
116,yuzhno-kurilsk,44.0306,145.8556,3.54,89,100,13.31,RU,1701973095
117,port elizabeth,-33.918,25.5701,21.17,88,0,2.06,ZA,1701973095
118,salinopolis,-0.6136,-47.3561,29.74,67,73,6.05,BR,1701973096
119,santa marta de ortigueira,43.6833,-7.85,15.14,77,100,2.68,ES,1701973096
120,champerico,14.3,-91.9167,34.3,67,1,2.83,GT,1701973096
121,aginskoye,51.1,114.53,-21.5,97,100,2.01,RU,1701973097
122,ulladulla,-35.35,150.4667,20.43,76,99,1.26,AU,1701973097
123,lons-le-saunier,46.75,5.75,3.99,78,100,1.61,FR,1701973097
124,kailua-kona,19.6406,-155.9956,24.17,87,40,1.54,US,1701973097
125,fale old settlement,-9.3852,-171.2468,29.1,72,100,3.05,TK,1701972921
126,west island,-12.1568,96.8225,25.99,83,40,6.69,CC,1701973098
127,attingal,8.6833,76.8333,28.82,84,47,0.19,IN,1701973098
128,ta`u,-14.2336,-169.5144,27.08,84,46,5.93,AS,1701973098
129,santana,-0.0583,-51.1817,33.1,62,40,7.2,BR,1701973098
130,andratx,39.5755,2.4202,16.56,79,74,7.65,ES,1701973098
131,laojunmiao,39.8333,97.7333,-0.23,27,34,2.21,CN,1701973099
132,petropavlovsk-kamchatsky,53.0452,158.6483,-7.53,72,75,3.0,RU,1701973099
133,kavieng,-2.5744,150.7967,27.17,82,100,4.14,PG,1701973099
134,polyarnyy,69.1989,33.4478,-15.64,97,22,6.66,RU,1701973099
135,vorgashor,67.5833,63.95,-26.9,98,100,2.03,RU,1701973100
136,hermanus,-34.4187,19.2345,19.4,87,1,5.68,ZA,1701973100
137,fort st. john,56.2499,-120.8529,-4.06,74,0,4.12,CA,1701973023
138,port mathurin,-19.6833,63.4167,26.07,76,6,3.46,MU,1701973100
139,yuxi,24.355,102.5422,10.81,97,52,1.06,CN,1701973078
140,tiksi,71.6872,128.8694,-33.05,99,83,2.68,RU,1701973101
141,alice springs,-23.7,133.8833,24.75,65,4,3.6,AU,1701972912
142,st. john's,47.5649,-52.7093,-2.24,78,100,5.66,CA,1701973101
143,kavaratti,10.5669,72.642,28.39,66,55,2.74,IN,1701973101
144,qarazhal,48.0078,70.7903,-12.13,52,49,4.86,KZ,1701973102
145,boyolangu,-8.1181,111.8935,25.45,89,98,1.49,ID,1701973102
146,karratha,-20.7377,116.8463,32.05,24,3,7.56,AU,1701972960
147,labrador city,52.9463,-66.9114,-11.05,79,75,4.12,CA,1701973102
148,rongelap,11.1635,166.8941,27.29,83,15,10.17,MH,1701972953
149,at taraf,25.3628,49.725,19.3,26,0,2.2,SA,1701973102
150,marang,5.2056,103.2059,23.95,92,100,2.14,MY,1701973103
151,klaksvik,62.2266,-6.589,6.51,81,85,13.24,FO,1701973103
152,koryazhma,61.3143,47.1691,-21.16,95,20,1.35,RU,1701972825
153,luis correia,-2.8792,-41.6669,32.0,58,0,10.29,BR,1701973103
154,walvis bay,-22.9575,14.5053,17.27,76,24,7.59,NA,1701972899
155,port alfred,-33.5906,26.891,20.1,94,1,1.34,ZA,1701973104
156,brisas de zicatela,15.8369,-97.0419,30.29,54,40,2.57,MX,1701973104
157,hamilton,39.1834,-84.5333,11.98,56,0,5.66,US,1701972897
158,las khorey,11.1595,48.1967,25.08,61,65,3.54,SO,1701973104
159,princeville,45.7668,-61.2985,-0.83,83,100,7.2,CA,1701973104
160,zarah sharan,33.1467,68.7917,3.54,25,0,1.84,AF,1701973105
161,hlukhiv,51.6782,33.9162,-6.66,94,100,5.63,UA,1701973105
162,tallkayf,36.4894,43.1192,15.39,58,100,1.44,IQ,1701973105
163,hithadhoo,-0.6,73.0833,27.52,77,91,4.72,MV,1701972926
164,sumenep,-7.0167,113.8667,27.26,83,100,2.48,ID,1701973105
165,mahina,-17.5065,-149.489,26.87,78,75,1.54,PF,1701972809
166,tsiombe,-25.3,45.4833,22.57,81,47,8.77,MG,1701973106
167,antofagasta,-23.65,-70.4,20.6,66,12,5.14,CL,1701973106
168,sinop,41.7711,34.8709,9.21,80,99,2.82,TR,1701972848
169,praia da vitoria,38.7333,-27.0667,17.64,82,20,5.95,PT,1701973106
170,porto seguro,-16.4497,-39.0647,29.29,65,40,6.69,BR,1701973107
171,portland,45.5234,-122.6762,9.02,88,75,7.15,US,1701973053
172,sheksna,59.21,38.5107,-15.02,99,97,1.23,RU,1701973107
173,manokwari,-0.8667,134.0833,26.46,81,100,3.67,ID,1701973077
174,pudozh,61.8099,36.5345,-20.03,100,97,1.34,RU,1701973067
175,chenaran,36.6455,59.1212,11.2,23,99,2.16,IR,1701973107
176,saryaghash,41.45,69.1667,3.96,60,100,0.95,KZ,1701973107
177,campo mourao,-24.0456,-52.3831,24.83,86,98,2.14,BR,1701973108
178,port-vila,-17.7338,168.3219,25.1,81,100,7.75,VU,1701972827
179,hailin,44.5833,129.4167,-12.55,84,61,0.41,CN,1701973108
180,ishigaki,24.3448,124.1572,19.07,77,40,3.6,JP,1701973012
181,basco,20.4487,121.9702,24.55,82,100,10.71,PH,1701973108
182,lazaro cardenas,17.9583,-102.2,30.3,54,78,1.82,MX,1701973108
183,raja,8.4596,25.678,26.78,20,15,1.96,SS,1701973109
184,dudinka,69.4058,86.1778,-24.62,98,44,4.92,RU,1701973109
185,akureyri,65.6835,-18.0878,-1.04,69,75,0.0,IS,1701973109
186,punta arenas,-53.15,-70.9167,14.01,66,0,6.17,CL,1701973109
187,margate,51.3813,1.3862,7.17,83,100,4.47,GB,1701973038
188,orhaneli,39.9033,28.9906,10.34,87,100,0.71,TR,1701973110
189,vanino,49.0869,140.2543,-5.6,76,100,9.42,RU,1701973110
190,port moresby,-9.4431,147.1797,24.15,89,73,1.33,PG,1701973110
191,thompson,55.7435,-97.8558,-9.91,92,75,0.0,CA,1701973110
192,new norfolk,-42.7826,147.0587,12.06,86,92,1.28,AU,1701973110
193,junin de los andes,-39.9504,-71.0694,24.86,24,25,1.01,AR,1701973111
194,east london,-33.0153,27.9116,20.52,94,0,3.6,ZA,1701973111
195,kapit,2.0167,112.9333,23.68,98,99,0.31,MY,1701973111
196,mongoumba,3.6415,18.5936,22.36,90,87,0.4,CF,1701973111
197,fortaleza,-3.7227,-38.5247,32.26,66,20,6.69,BR,1701972922
198,vung tau,10.346,107.0843,25.86,82,94,6.35,VN,1701973078
199,la'ie,21.6477,-157.9253,25.98,75,19,0.45,US,1701973111
200,chinchilla,-26.75,150.6333,19.83,73,0,4.29,AU,1701973112
201,viedma,-40.8135,-62.9967,23.14,46,38,8.07,AR,1701973020
202,jamestown,42.097,-79.2353,2.77,76,100,4.63,US,1701973024
203,whitehorse,60.7161,-135.0538,-3.57,79,75,7.72,CA,1701973112
204,cadale,2.7603,46.3222,27.3,69,44,7.18,SO,1701973112
205,pavlodar,52.3,76.95,-25.11,70,0,4.0,KZ,1701973112
206,hobyo,5.3505,48.5268,26.53,62,78,7.73,SO,1701973113
207,pathein,16.7833,94.7333,24.21,91,72,0.95,MM,1701973113
208,tindouf,27.6711,-8.1474,21.25,37,40,1.54,DZ,1701973113
209,dano,11.15,-3.0667,32.14,12,61,1.94,BF,1701973113
210,cabo san lucas,22.8909,-109.9124,29.73,52,0,0.45,MX,1701973100
211,freetown,8.484,-13.2299,27.75,74,40,3.69,SL,1701972877
212,liwonde,-15.0506,35.2035,26.15,57,67,0.96,MW,1701973114
213,san ramon,37.7799,-121.978,15.28,84,0,3.6,US,1701972959
214,black river,18.0264,-77.8487,28.97,64,26,0.94,JM,1701973114
215,loiza,18.4313,-65.8802,32.14,73,40,3.6,PR,1701973115
216,qashar,53.3906,62.9297,-28.12,92,6,2.73,KZ,1701973115
217,wamba,8.9333,8.6,27.33,20,29,0.17,NG,1701973115
218,almere stad,52.3703,5.2141,2.8,96,99,2.68,NL,1701973115
219,luderitz,-26.6481,15.1594,18.51,73,0,7.73,NA,1701973115
220,guasdualito,7.2424,-70.7324,34.55,39,93,1.51,VE,1701973115
221,mishelevka,52.8575,103.1719,-22.76,86,100,4.44,RU,1701973116
222,coahuayana de hidalgo,18.7,-103.6583,31.09,49,51,0.27,MX,1701973116
223,geraldton,-28.7667,114.6,20.23,68,100,7.72,AU,1701972914
224,pedernales,18.0384,-71.744,28.61,67,8,1.68,DO,1701973116
225,arteaga,18.4667,-102.4167,23.8,55,96,1.66,MX,1701973116
226,holualoa,19.6228,-155.9522,22.1,87,40,1.54,US,1701973117
227,carrigaline,51.8117,-8.3986,8.86,93,75,6.17,IE,1701973117
228,bin yauri,10.7823,4.8114,29.92,15,80,1.29,NG,1701973117
229,newman,37.3138,-121.0208,14.57,42,4,0.45,US,1701972966
230,afaahiti,-17.75,-149.2833,25.93,86,99,8.86,PF,1701973011
231,rikaze,29.25,88.8833,-1.59,84,92,1.28,CN,1701973117
232,partenit,44.578,34.3446,9.97,95,100,4.73,UA,1701973117
233,namibe,-15.1961,12.1522,23.67,81,73,5.59,AO,1701973117
234,lerdo de tejada,18.6167,-95.5167,25.09,73,99,4.22,MX,1701973059
235,kachug,53.9606,105.8817,-32.09,98,75,1.2,RU,1701973118
236,prince rupert,54.3161,-130.3201,3.83,86,0,5.14,CA,1701973118
237,kununurra,-15.7667,128.7333,26.99,83,59,3.09,AU,1701973118
238,pobe,6.9801,2.6649,27.37,69,100,3.46,BJ,1701973118
239,tervel,43.75,27.4,4.6,97,100,4.28,BG,1701973118
240,sanchor,24.7553,71.7722,20.16,36,0,3.76,IN,1701973119
241,hanceville,34.0607,-86.7675,14.25,38,1,2.95,US,1701973119
242,gornopravdinsk,60.05,69.9,-30.8,91,21,1.85,RU,1701973119
243,warwick,41.7001,-71.4162,1.03,52,75,5.14,US,1701973015
244,san rafael del sur,11.8485,-86.4384,30.41,50,9,7.26,NI,1701973119
245,fort bragg,35.139,-79.006,12.17,39,0,5.14,US,1701973119
246,illizi,26.4833,8.4667,18.89,28,0,2.61,DZ,1701973120
247,altay,47.8667,88.1167,-15.84,79,33,3.27,CN,1701973120
248,klyetsk,53.0635,26.6321,-9.93,94,100,4.3,BY,1701973120
249,sur,22.5667,59.5289,23.39,48,0,1.86,OM,1701973120
250,betulia,6.1128,-75.9838,27.16,70,98,1.1,CO,1701973120
251,sisimiut,66.9395,-53.6735,-5.47,68,89,3.1,GL,1701973120
252,tomatlan,19.9333,-105.25,31.65,45,31,1.11,MX,1701973121
253,el rosario,24.2556,-107.1828,28.49,32,0,1.48,MX,1701972881
254,kruisfontein,-34.0033,24.7314,19.94,70,0,1.31,ZA,1701973071
255,harper,4.375,-7.7169,27.43,76,43,3.43,LR,1701972970
256,taurage,55.2522,22.2897,-4.49,95,100,4.73,LT,1701973121
257,amahai,-3.3333,128.9167,26.19,85,95,1.51,ID,1701973121
258,kiruna,67.8557,20.2251,-11.49,92,100,3.09,SE,1701973121
259,pisco,-13.7,-76.2167,22.23,78,0,4.12,PE,1701972932
260,klyuchi,52.2667,79.1667,-20.4,72,99,3.91,RU,1701973122
261,bikenibeu village,1.3673,173.1241,26.98,89,75,3.09,KI,1701973122
262,kyosai,34.8503,128.5886,-0.02,66,0,5.38,KR,1701973122
263,ad darb,17.7229,42.2526,27.58,66,19,0.77,SA,1701973122
264,mount isa,-20.7333,139.5,23.87,41,3,2.57,AU,1701973122
265,minot,48.2325,-101.2963,9.12,61,0,2.57,US,1701973123
266,villa regina,-39.1,-67.0667,33.32,15,55,0.89,AR,1701973123
267,hawaiian paradise park,19.5933,-154.9731,23.83,86,75,3.09,US,1701973123
268,happy valley-goose bay,53.3168,-60.3315,-4.83,68,100,10.29,CA,1701972911
269,carnarvon,-24.8667,113.6333,21.46,71,0,10.09,AU,1701973123
270,bamboo flat,11.7,92.7167,25.05,100,5,1.03,IN,1701973123
271,la cruz,23.9167,-106.9,27.43,40,0,1.71,MX,1701973123
272,carbonear,47.7332,-53.2148,-1.99,75,100,6.1,CA,1701973124
273,valparaiso,-33.0393,-71.6273,20.13,64,20,5.66,CL,1701972981
274,yantarnyy,54.8717,19.9381,-2.08,92,100,7.05,RU,1701973124
275,cambria,35.5641,-121.0808,17.08,75,81,1.79,US,1701973124
276,ankazoabo,-22.2833,44.5167,28.78,54,92,3.56,MG,1701973124
277,nemuro,43.3236,145.575,3.19,69,95,9.61,JP,1701973124
278,marquelia,16.5833,-98.8167,30.33,53,79,1.96,MX,1701973124
279,ad dabbah,18.05,30.95,22.88,20,4,4.8,SD,1701973124
280,yima,34.7381,111.8839,11.14,31,0,3.26,CN,1701973125
281,rosa zarate,0.3333,-79.4667,28.32,76,96,1.55,EC,1701973125
282,zuni pueblo,35.0725,-108.8506,11.35,32,22,7.65,US,1701973125
283,gorontalo,0.5412,123.0595,24.55,95,65,1.48,ID,1701973125
284,severo-yeniseyskiy,60.3725,93.0408,-31.9,93,90,1.34,RU,1701973125
285,gadzhiyevo,69.2551,33.3362,-16.46,98,39,6.54,RU,1701972973
286,horta,38.5333,-28.6333,17.8,80,20,8.05,PT,1701973126
287,cam ranh,11.9214,109.1591,24.98,94,40,4.12,VN,1701973126
288,zhaotong,27.3167,103.7167,7.81,86,53,2.13,CN,1701973126
289,svetlyy,54.675,20.1347,-1.97,95,99,4.89,RU,1701973126
290,sukumo,32.9333,132.7333,6.52,65,0,2.04,JP,1701972864
291,shchuchyn,53.6014,24.7465,-7.57,89,100,4.36,BY,1701973126
292,sitka,57.0531,-135.33,2.94,87,75,2.06,US,1701973103
293,bardai,11.65,7.2333,24.78,17,98,3.5,NG,1701973025
294,ugoofaaru,5.6667,73.0,28.21,80,100,11.22,MV,1701973127
295,shanhaiguan,39.9988,119.7564,4.95,51,0,2.67,CN,1701973127
296,betio village,1.358,172.9211,27.02,80,100,7.72,KI,1701973127
297,liman,48.9884,37.8023,-1.84,72,100,7.34,UA,1701973127
298,quellon,-43.1167,-73.6167,15.37,61,14,3.93,CL,1701973127
299,kill devil hills,36.0307,-75.676,8.88,51,0,3.6,US,1701972994
300,ma'an,26.9775,110.7211,12.65,66,34,1.52,CN,1701973127
301,lanxi,29.2195,119.477,10.04,67,0,0.92,CN,1701973127
302,bang khla,13.7214,101.2081,28.32,75,35,2.39,TH,1701973127
303,scottburgh,-30.2867,30.7532,21.13,94,100,3.71,ZA,1701973128
304,christchurch,-43.5333,172.6333,14.39,74,40,3.6,NZ,1701972904
305,yabelo,4.8833,38.0833,21.09,38,64,3.91,ET,1701973128
306,guajara mirim,-10.7828,-65.3394,32.09,62,40,3.09,BR,1701973128
307,puerto santa,-8.9906,-78.6456,21.87,78,58,4.52,PE,1701973128
308,uturoa,-16.7333,-151.4333,26.51,82,98,4.87,PF,1701973012
309,khorugh,37.4897,71.553,-1.35,48,100,0.3,TJ,1701973129
310,salta,-24.7859,-65.4117,23.33,56,75,2.06,AR,1701973129
311,tazovsky,67.4667,78.7,-25.38,98,93,4.61,RU,1701973129
312,ancud,-41.8697,-73.8203,14.78,65,43,4.3,CL,1701973068
313,ellsworth,44.5434,-68.4195,-4.04,82,15,0.45,US,1701973129
314,azadshahr,34.7909,48.5707,7.27,53,75,2.06,IR,1701973129
315,alesund,62.4723,6.1549,1.85,76,40,5.14,NO,1701973129
316,cannonvale,-20.2833,148.7,25.66,62,84,7.8,AU,1701973129
317,luga,58.7372,29.8453,-14.62,99,97,2.05,RU,1701973130
318,sena madureira,-9.0656,-68.6569,34.66,41,79,1.81,BR,1701973130
319,galle,6.0367,80.217,25.99,89,26,0.43,LK,1701973130
320,greenford,51.5287,-0.3551,8.45,94,100,5.66,GB,1701973130
321,lancaster,40.2504,-76.2499,3.73,84,100,2.57,US,1701973001
322,celestun,20.8667,-90.4,26.49,55,86,3.36,MX,1701973130
323,saurimo,-9.6608,20.3916,19.56,94,80,1.64,AO,1701973130
324,hasaki,35.7333,140.8333,10.16,41,0,5.71,JP,1701973072
325,banda aceh,5.5577,95.3222,26.0,85,100,3.53,ID,1701973131
326,tangalle,6.024,80.7911,25.4,90,25,0.78,LK,1701973131
327,gisborne,-38.6533,178.0042,14.71,81,86,0.54,NZ,1701973131
328,kayangel,8.0823,134.7173,28.37,65,18,6.03,PW,1701973131
329,suhbaatar,50.2314,106.2078,-15.53,67,100,3.59,MN,1701973131
330,buala,-8.145,159.5921,26.47,86,97,5.34,SB,1701973131
331,kushiro,42.975,144.3747,0.97,58,45,12.5,JP,1701972845
332,howrah,22.5892,88.3103,19.0,94,100,3.09,IN,1701973130
333,san jose del guaviare,2.5729,-72.6459,30.77,61,96,1.4,CO,1701973132
334,irbit,57.6705,63.071,-33.91,99,6,1.35,RU,1701973132
335,luena,-11.7833,19.9167,20.56,76,71,2.05,AO,1701973132
336,east ballina,-28.8667,153.5833,20.44,88,2,1.52,AU,1701973132
337,znamenskoye,57.1281,73.8282,-33.2,99,7,1.88,RU,1701973132
338,wauseon,41.5492,-84.1416,8.72,70,0,5.14,US,1701973133
339,ujae,8.9322,165.7642,27.62,82,83,10.11,MH,1701973133
340,tomohon,1.3346,124.8392,20.52,88,45,0.59,ID,1701973133
341,warah,27.4481,67.7978,19.01,24,0,2.2,PK,1701973133
342,jacutinga,-22.2856,-46.6122,27.71,61,38,1.53,BR,1701972912
343,neiafu,-18.65,-173.9833,25.38,94,40,2.06,TO,1701973133
344,micheweni,-4.9667,39.8333,27.16,85,75,4.39,TZ,1701973133
345,illapel,-31.6308,-71.1653,29.07,29,0,4.51,CL,1701973133
346,vorkuta,67.5,64.0,-26.61,98,100,2.1,RU,1701973134
347,limoeiro,-7.8747,-35.4503,30.83,47,95,6.17,BR,1701973134
348,arvayheer,46.2639,102.775,-9.55,46,27,2.43,MN,1701973134
349,ahualulco de mercado,20.7014,-103.9746,21.07,62,56,2.29,MX,1701973134
350,arenapolis,-14.4503,-56.8461,41.45,20,31,0.6,BR,1701973134
351,thinadhoo,0.5333,72.9333,25.94,86,100,4.32,MV,1701972879
352,remire-montjoly,4.9167,-52.2667,31.02,70,75,7.2,GF,1701972934
353,port saint john's,-31.6229,29.5448,22.17,81,85,5.56,ZA,1701973135
354,hilo,19.7297,-155.09,25.34,80,75,3.09,US,1701973095
355,vennesla,58.2694,7.9741,-0.96,80,100,6.17,NO,1701973135
356,artsyz,45.9919,29.4182,0.41,98,100,4.64,UA,1701973135
357,sechura,-5.5569,-80.8222,25.1,65,74,4.01,PE,1701973135
358,road town,18.4167,-64.6167,29.05,65,20,2.06,VG,1701973135
359,bengkulu,-3.8004,102.2655,24.12,95,100,1.54,ID,1701973124
360,sodra sandby,56.5667,16.6167,1.05,96,100,5.55,SE,1701973135
361,tamiahua,21.2667,-97.45,20.97,84,100,1.17,MX,1701973136
362,acajutla,13.5928,-89.8275,31.67,51,2,2.11,SV,1701973136
363,mina clavero,-31.721,-65.0062,29.34,16,0,5.26,AR,1701973136
364,bantogon,6.5333,124.0333,26.08,82,61,1.25,PH,1701973136
365,yemetsk,63.4721,41.7941,-23.9,99,40,1.45,RU,1701973137
366,bonthe,7.5264,-12.505,27.8,73,26,4.2,SL,1701973137
367,marka,1.7159,44.7717,26.68,74,49,6.27,SO,1701973137
368,pacific grove,36.6177,-121.9166,14.94,85,0,2.24,US,1701973137
369,vilyuysk,63.7553,121.6247,-45.56,100,79,1.34,RU,1701973137
370,nizhnesortymskiy,62.4397,71.7603,-28.63,91,99,4.02,RU,1701973138
371,papao,-17.75,-149.55,26.82,82,94,8.43,PF,1701973138
372,guerrero negro,27.9769,-114.0611,20.82,60,0,6.33,MX,1701973138
373,ciudad bolivar,8.1222,-63.5497,32.01,49,95,4.69,VE,1701973138
374,tangi,34.3006,71.6536,12.0,26,47,1.17,PK,1701973138
375,chaozhou,23.6651,116.6379,11.92,73,16,1.07,CN,1701973138
376,kurchatov,51.6601,35.6521,-4.21,92,99,5.62,RU,1701973139
377,gerolstein,50.2222,6.6598,1.07,90,94,3.81,DE,1701973139
378,selfoss,63.9331,-20.9971,-3.16,58,75,5.29,IS,1701973139
379,mamuju,-2.6748,118.8885,25.31,90,100,1.83,ID,1701973139
380,isola di capo rizzuto,38.96,17.0933,11.41,62,40,3.09,IT,1701973139
381,medenine,33.355,10.5055,14.56,59,0,1.08,TN,1701973139
382,sorong,-0.8833,131.25,27.05,83,98,2.18,ID,1701973140
383,mil'kovo,55.6078,37.7956,-11.78,100,87,1.97,RU,1701973140
384,chonchi,-42.6128,-73.8092,20.11,40,33,0.6,CL,1701973062
385,stuttgart,48.7823,9.177,2.12,77,0,1.54,DE,1701972963
386,ilha de mocambique,-15.0342,40.7358,27.25,73,29,6.16,MZ,1701973140
387,wanganui,-39.9333,175.05,12.0,99,61,1.62,NZ,1701973141
388,khandyga,62.6667,135.6,-33.89,92,100,1.68,RU,1701973141
389,manavalakurichi,8.1333,77.3,26.75,81,18,2.01,IN,1701973141
390,marathon,44.9,-89.7668,7.58,62,20,2.57,US,1701973141
391,port blair,11.6667,92.75,25.02,100,5,1.03,IN,1701973141
392,pembroke,45.8168,-77.1162,-7.01,86,100,2.4,CA,1701973142
393,kerikeri,-35.2268,173.9474,13.84,91,49,2.16,NZ,1701973142
394,anahuac,27.2333,-100.15,22.63,62,98,6.25,MX,1701973142
395,trevelin,-43.0858,-71.4639,23.71,40,6,1.27,AR,1701973142
396,la asuncion,11.0333,-63.8628,28.24,70,22,6.33,VE,1701973143
397,mili,6.0815,171.735,27.86,82,75,9.15,MH,1701973143
398,port lincoln,-34.7333,135.8667,19.6,66,100,0.64,AU,1701973143
399,watampone,-4.5386,120.3279,24.72,91,82,2.48,ID,1701972875
400,tolanaro,-25.0319,46.9987,23.19,81,87,6.83,MG,1701973144
401,at taj,24.2049,23.2857,15.27,29,91,1.08,LY,1701973144
402,buka,40.8108,69.1986,6.43,53,100,1.43,UZ,1701973144
403,baruun-urt,46.6806,113.2792,-11.27,93,95,6.49,MN,1701973141
404,anchorage,61.2181,-149.9003,-6.85,86,100,2.57,US,1701972904
405,goba,7.0167,39.9833,10.53,70,84,1.57,ET,1701973145
406,grand falls-windsor,48.9332,-55.6649,-1.39,81,90,0.45,CA,1701973143
407,noyabrsk,63.1994,75.4507,-27.09,90,100,4.47,RU,1701973145
408,broome,42.2506,-75.833,2.23,90,100,3.09,US,1701973146
409,kirakira,-10.4544,161.9205,26.48,85,94,4.38,SB,1701973146
410,charters towers,-20.1,146.2667,21.28,73,69,4.58,AU,1701972966
411,colonia,50.9333,6.95,2.87,84,0,3.6,DE,1701973060
412,puerto quijarro,-17.7833,-57.7667,38.89,27,37,2.72,BO,1701973147
413,livingstone,-17.8419,25.8543,29.11,35,77,2.1,ZM,1701973147
414,joshimath,30.5667,79.5667,6.82,23,0,4.01,IN,1701972910
415,brokopondo,4.75,-55.1667,30.9,57,88,1.25,SR,1701973147
416,parun,35.4207,70.9221,-2.04,51,99,2.39,AF,1701973147
417,san luis de la loma,17.2706,-100.8939,29.58,58,90,1.93,MX,1701973148
418,nar'yan-mar,67.6713,53.087,-14.38,96,100,3.58,RU,1701973148
419,fuyang,32.9,115.8167,15.58,38,0,6.65,CN,1701973148
420,nova xavantina,-14.6667,-52.35,39.61,22,53,2.22,BR,1701973148
421,cotia,-23.6704,-46.9472,34.15,52,44,1.97,BR,1701973149
422,bonne terre,37.9231,-90.5554,17.23,43,0,5.82,US,1701973149
423,midvagur,62.0511,-7.1939,6.46,81,100,11.83,FO,1701973011
424,coruripe,-10.1256,-36.1756,28.56,62,78,6.0,BR,1701973149
425,maicao,11.3832,-72.2432,30.97,58,87,7.92,CO,1701973149
426,pierre,44.3683,-100.351,15.15,41,0,2.24,US,1701973150
427,aktau,43.65,51.2,0.32,54,100,6.87,KZ,1701973150
428,el granada,37.5027,-122.4694,16.12,76,20,4.63,US,1701973150
429,cuito,-12.3833,16.9333,17.15,91,73,1.71,AO,1701973151
430,rundu,-17.9333,19.7667,27.54,36,76,1.84,NA,1701973151
431,taoudenni,22.6783,-3.9836,24.94,15,94,4.38,ML,1701973151
432,mawu,29.5923,107.3139,12.05,70,96,0.95,CN,1701973151
433,bata,1.8639,9.7658,26.21,83,90,1.6,GQ,1701973151
434,machagai,-26.9261,-60.0496,24.22,75,98,4.33,AR,1701973152
435,emerald,-23.5333,148.1667,18.52,83,2,4.26,AU,1701973152
436,kourou,5.1552,-52.6478,31.03,72,38,4.38,GF,1701973152
437,zagora,30.3484,-5.8365,19.07,30,100,2.82,MA,1701973152
438,rio preto da eva,-2.6994,-59.6997,32.62,55,68,1.1,BR,1701973153
439,barguzin,53.6167,109.6167,-17.34,98,96,2.34,RU,1701973153
440,santa maria,-29.6842,-53.8069,24.8,84,100,4.76,BR,1701973153
441,sile,41.1754,29.6133,12.54,78,100,1.7,TR,1701973153
442,susuman,62.7833,148.1667,-40.01,95,90,0.45,RU,1701973093
443,santo antonio,-6.3106,-35.4789,30.48,49,95,6.2,BR,1701973154
444,et taiyiba,32.2662,35.0089,18.01,73,100,2.21,IL,1701973154
445,hami,42.8,93.45,0.46,46,60,4.22,CN,1701973154
446,rio grande,-32.035,-52.0986,28.06,66,83,7.69,BR,1701973155
447,hotan,37.0997,79.9269,8.57,10,0,2.72,CN,1701973155
448,baciu,46.8,23.5167,1.68,100,100,2.06,RO,1701973155
449,nadym,65.5333,72.5167,-22.82,97,100,6.88,RU,1701973155
450,winnemucca,40.973,-117.7357,6.03,52,20,4.12,US,1701973155
451,ongwediva,-17.7833,15.7667,25.77,52,53,8.14,NA,1701973156
452,kolonia,50.9333,6.95,2.87,84,0,3.6,DE,1701973156
453,howard springs,-12.497,131.047,25.95,96,51,1.21,AU,1701973156
454,mumford,5.2618,-0.759,27.46,80,100,4.35,GH,1701973157
455,tallahassee,30.4383,-84.2807,16.91,45,20,1.34,US,1701972959
456,beberibe,-4.1797,-38.1306,29.59,63,68,5.94,BR,1701973157
457,okhotsk,59.3833,143.3,-9.44,95,100,5.36,RU,1701973157
458,smithers,54.7804,-127.1743,-3.82,86,100,2.57,CA,1701973157
459,weno,7.4515,151.8468,26.97,89,100,5.14,FM,1701972938
460,lompoc,34.6391,-120.4579,18.9,59,0,8.75,US,1701973158
461,bloomfield,40.8068,-74.1854,3.25,73,100,5.14,US,1701973049
462,hammamet,36.4,10.6167,10.92,70,6,4.11,TN,1701973158
463,kearney,40.6995,-99.0815,9.31,49,0,2.57,US,1701973158
464,saint-pierre,-21.3393,55.4781,25.32,94,100,1.54,RE,1701973164
465,vilyuchinsk,52.9306,158.4028,-6.71,79,31,2.6,RU,1701973164
466,meleuz,52.9667,55.9167,-17.84,97,45,1.57,RU,1701973164
467,arraial do cabo,-22.9661,-42.0278,34.98,51,40,9.26,BR,1701973164
468,codrington,-38.2667,141.9667,17.04,54,100,1.62,AU,1701973164
469,jumla,29.2747,82.1838,3.2,71,4,1.45,NP,1701973165
470,stettler,52.3168,-112.7186,-0.14,100,100,4.63,CA,1701973165
471,brookings,44.3114,-96.7984,13.58,58,0,5.66,US,1701973165
472,suksun,57.1431,57.3949,-31.96,98,6,0.82,RU,1701973165
473,ugento,39.9263,18.1574,8.59,61,13,8.83,IT,1701973165
474,tazacorte,28.629,-17.9293,21.54,78,40,4.12,ES,1701972974
475,cheremukhovo,60.3484,59.9851,-33.91,98,6,0.89,RU,1701973166
476,nuevitas,21.5453,-77.2644,25.25,59,100,5.06,CU,1701973166
477,volodymyr-volynskyi,50.8525,24.3236,-7.82,95,99,3.73,UA,1701973166
478,ribeira brava,32.65,-17.0667,21.51,85,62,0.86,PT,1701973166
479,necochea,-38.5473,-58.7368,19.34,62,20,5.71,AR,1701973166
480,oltinko'l,40.8011,72.1634,9.76,43,100,0.55,UZ,1701973167
481,nagqu,31.5,92.0,-8.64,75,100,0.98,CN,1701973167
482,dunedin,-45.8742,170.5036,12.67,73,51,1.34,NZ,1701972992
483,acapulco de juarez,16.8634,-99.8901,31.9,55,40,1.54,MX,1701972948
484,longmont,40.1672,-105.1019,17.78,24,100,12.35,US,1701972950
485,along,28.1667,94.7667,16.35,72,100,0.19,IN,1701973167
486,sarykemer,43.0,71.5,-1.29,50,100,2.44,KZ,1701973168
487,pariaman,-0.619,100.12,25.03,87,100,1.35,ID,1701973168
488,bodaybo,57.8506,114.1933,-33.49,98,100,0.84,RU,1701973168
489,santa maria del oro,25.9333,-105.3667,19.82,40,6,1.99,MX,1701973168
490,nabire,-3.3667,135.4833,24.54,92,89,1.63,ID,1701973168
491,talitsa,56.8804,60.0213,-37.7,98,5,0.3,RU,1701973168
492,santa terezinha,-29.9002,-50.0904,25.55,87,99,3.78,BR,1701973169
493,tubarjal,30.4999,38.216,17.52,50,57,4.14,SA,1701973169
494,namdrik,5.5994,168.1028,28.05,81,99,9.02,MH,1701973169
495,male,4.1748,73.5089,27.97,83,75,6.69,MV,1701973169
496,chania,35.5122,24.0156,14.78,88,75,4.12,GR,1701973169
497,penzance,50.1186,-5.5371,11.38,81,100,11.11,GB,1701973170
498,kuraymah,18.55,31.85,23.85,24,6,5.08,SD,1701973170
499,valle de la pascua,9.2155,-66.0073,30.58,52,99,3.93,VE,1701973170
500,glenfield park,-35.1372,147.334,22.55,71,100,1.79,AU,1701973170
501,anadyr,64.75,177.4833,-20.72,84,20,12.0,RU,1701973170
502,bodo,67.28,14.405,-3.98,63,40,11.32,NO,1701973138
503,naze,28.3667,129.4833,13.51,64,0,1.25,JP,1701972946
504,vilcun,-38.65,-72.2333,21.41,35,81,2.6,CL,1701973171
505,lebu,-37.6167,-73.65,16.33,75,45,6.54,CL,1701973171
506,san clemente del tuyu,-36.3569,-56.7235,19.99,65,30,6.79,AR,1701973171
507,rustington,50.8103,-0.5067,9.43,97,75,8.23,GB,1701973171
508,kovernino,57.1253,43.8142,-20.59,99,25,1.59,RU,1701973172
509,lluta,-16.0147,-72.0142,17.97,34,100,5.23,PE,1701973172
510,cururupu,-1.8283,-44.8683,30.66,60,83,4.1,BR,1701973137
511,mbandaka,0.0487,18.2603,23.29,93,79,1.33,CD,1701973172
512,stavern,59.0,10.0333,-3.79,87,86,7.75,NO,1701973165
513,taber,49.8167,-112.1518,2.11,93,100,7.72,CA,1701973173
514,abu dhabi,24.4667,54.3667,26.64,53,0,1.54,AE,1701973173
515,faya-largeau,17.9257,19.1043,23.65,16,84,4.26,TD,1701973173
516,crane,31.3974,-102.3501,20.2,35,48,5.89,US,1701973173
517,bundaberg north,-24.8551,152.3425,20.68,96,9,1.34,AU,1701973174
518,kalulushi,-12.8378,28.0919,23.01,52,73,0.83,ZM,1701973174
519,crucecita,-28.95,-58.9833,27.71,51,76,3.9,AR,1701973174
520,shalkar,47.8288,59.6258,-7.07,54,100,6.78,KZ,1701973174
521,bam,29.106,58.357,15.57,19,0,1.77,IR,1701973174
522,woolgoolga,-30.1106,153.2007,22.25,94,24,1.47,AU,1701973174
523,wanxian,30.8039,108.3897,13.35,72,66,1.34,CN,1701973175
524,abatskoye,56.2875,70.4555,-34.72,100,14,2.16,RU,1701973175
525,abra pampa,-22.7205,-65.697,22.56,23,3,5.75,AR,1701973175
526,whakatane,-37.9585,176.9854,18.62,82,100,0.45,NZ,1701973175
527,kontcha,7.9667,12.2333,29.52,17,72,1.7,CM,1701973175
528,villa tecolutilla,18.2833,-93.3167,25.43,74,99,5.27,MX,1701973175
529,inzhavino,52.3185,42.4937,-10.38,93,14,3.66,RU,1701973176
530,udachny,66.4167,112.4,-25.31,75,100,1.38,RU,1701972899
531,kingston,17.997,-76.7936,31.53,62,20,4.12,JM,1701972904
532,korla,41.7597,86.1469,2.57,48,30,3.4,CN,1701973176
533,dean funes,-30.4204,-64.3498,29.61,22,2,4.87,AR,1701973176
534,leh,34.1667,77.5833,-7.7,34,1,1.93,IN,1701973176
535,fortuna,40.5982,-124.1573,10.52,96,0,0.89,US,1701973138
536,fort mcmurray,56.7268,-111.381,-2.23,74,0,3.6,CA,1701973177
537,oulad teima,30.3947,-9.209,16.6,72,100,3.22,MA,1701973177
538,magadan,59.5667,150.8,-11.72,81,100,7.24,RU,1701973177
539,toliara,-23.35,43.6667,26.82,66,20,3.86,MG,1701973177
540,nova vicosa,-17.8919,-39.3719,29.31,61,26,6.37,BR,1701973172
541,zouerate,22.7187,-12.4521,23.79,20,100,3.81,MR,1701973177
542,kapa'a,22.0752,-159.319,21.99,91,0,2.57,US,1701973177
543,esperanca,-7.0331,-35.8572,28.21,57,89,5.33,BR,1701973178
544,ndende,-2.4008,11.3581,23.87,95,54,0.88,GA,1701973178
545,americus,32.0724,-84.2327,13.07,38,0,1.54,US,1701973142
546,nova sintra,14.8667,-24.7167,21.22,74,100,7.56,CV,1701972895
547,novodvinsk,64.4165,40.8122,-26.23,97,33,1.67,RU,1701973144
548,puerto deseado,-47.7503,-65.8938,12.87,58,0,6.48,AR,1701973178
549,havran,39.5583,27.0983,11.86,94,75,2.57,TR,1701973179
550,douala,4.0483,9.7043,26.38,82,92,2.06,CM,1701973058
551,talcahuano,-36.7167,-73.1167,20.82,60,0,5.66,CL,1701973179
552,nichinan,31.6,131.3667,5.82,71,0,2.25,JP,1701973005
553,greenville,35.6127,-77.3663,10.09,46,0,5.14,US,1701973042
554,castelli,-25.9468,-60.6195,22.89,93,100,3.35,AR,1701973179
555,taksimo,56.3444,114.8794,-31.23,87,39,1.23,RU,1701973179
556,natal,-5.795,-35.2094,30.36,62,75,7.2,BR,1701973169
557,wuhai,39.6647,106.8122,4.0,31,4,2.72,CN,1701973180
558,port augusta,-32.5,137.7667,30.12,31,100,0.62,AU,1701973180
559,velikiy ustyug,60.7644,46.3106,-18.67,84,28,1.79,RU,1701973180
560,oranjemund,-28.55,16.4333,17.56,88,1,4.33,NA,1701973180
561,prado,-17.3411,-39.2208,28.22,63,9,5.22,BR,1701973180
562,keflavik,64.0049,-22.5624,2.24,60,0,6.69,IS,1701972936
563,hadibu,12.65,54.0333,25.23,67,74,6.69,YE,1701972937
564,kuta,-8.7233,115.1723,26.97,94,20,2.68,ID,1701973181
565,brak,27.5496,14.2714,16.71,33,14,5.7,LY,1701973181
566,nuuk,64.1835,-51.7216,3.34,41,75,5.66,GL,1701973020
567,turaif,31.6725,38.6637,12.14,66,0,2.57,SA,1701973181
568,la sarre,48.8002,-79.1996,-3.57,90,98,2.27,CA,1701973181
569,nelson bay,-32.7167,152.15,21.67,96,53,0.89,AU,1701973182
570,amnat charoen,15.9167,104.75,19.5,75,53,4.86,TH,1701973182
571,monrovia,6.3005,-10.7969,28.87,76,4,4.72,LR,1701973024
572,grand gaube,-20.0064,57.6608,26.22,91,9,5.96,MU,1701973182
573,chifeng,42.2683,118.9636,1.99,47,17,3.92,CN,1701973182
574,kovdor,67.5662,30.4758,-16.54,97,99,1.93,RU,1701973182
575,vadso,70.0744,29.7487,-9.91,85,75,10.8,NO,1701973183
576,san patricio,28.017,-97.5169,24.37,55,100,6.3,US,1701973183
577,shenjiamen,29.9576,122.298,15.31,72,0,9.16,CN,1701973183
578,caraballeda,10.6112,-66.8522,30.76,70,62,3.6,VE,1701973183
579,chuguyevka,44.1653,133.8633,-15.65,96,41,1.33,RU,1701973183
580,robore,-18.3333,-59.75,33.05,52,40,5.14,BO,1701973183
581,salym,60.0625,71.4789,-31.17,96,24,1.81,RU,1701973184
582,kismayo,-0.3582,42.5454,27.7,74,8,5.37,SO,1701973184
583,laguna,38.421,-121.4238,13.2,89,100,3.6,US,1701973184
584,kham sakae saeng,15.3322,102.1728,25.51,70,44,2.17,TH,1701973184
585,agat village,13.3886,144.6585,27.52,85,20,4.12,GU,1701973184
586,waingapu,-9.6567,120.2641,26.62,84,86,1.84,ID,1701973184
587,siem reap,13.5,104.0,25.07,78,100,1.55,KH,1701973184
588,angaur state,6.906,134.13,28.57,75,22,6.2,PW,1701973185
589,marsa alam,25.0757,34.8918,23.18,63,0,2.48,EG,1701973185
590,uvira,-3.4067,29.1458,23.65,84,26,1.15,CD,1701973185
