City_ID,City,Lat,Lng,Max Temp,Humidity,Cloudiness,Wind Speed,Country,Date
0,ribeira grande,38.5167,-28.7,16.54,79,58,1.79,PT,1701922761
1,albany,42.6001,-73.9662,-2.46,82,39,0.89,US,1701922689
2,stanley,54.868,-1.6985,3.2,86,75,4.12,GB,1701922806
3,edinburgh of the seven seas,-37.0676,-12.3116,14.03,79,14,6.51,SH,1701922722
4,adamstown,-25.066,-130.1015,22.7,83,66,5.96,PN,1701922708
5,waitangi,-43.9535,-176.5597,14.9,92,100,4.47,NZ,1701922700
6,mount isa,-20.7333,139.5,36.87,22,40,4.63,AU,1701922722
7,keflavik,64.0049,-22.5624,2.95,55,0,10.8,IS,1701922741
8,quellon,-43.1167,-73.6167,7.15,90,1,2.13,CL,1701923291
9,isafjordur,66.0755,-23.124,-2.61,81,32,2.88,IS,1701922771
10,alofi,-19.0595,-169.9187,27.94,78,67,7.03,NU,1701922774
11,tiksi,71.6872,128.8694,-28.77,98,99,3.67,RU,1701922699
12,grytviken,-54.2811,-36.5092,-0.89,85,42,8.23,GS,1701922700
13,kodiak,57.79,-152.4072,2.73,56,0,5.66,US,1701922827
14,port-aux-francais,-49.35,70.2167,4.67,82,100,8.39,TF,1701922707
15,ta`u,-14.2336,-169.5144,27.37,82,49,5.56,AS,1701923293
16,holualoa,19.6228,-155.9522,23.91,76,100,2.57,US,1701922720
17,nemuro,43.3236,145.575,9.1,91,100,11.88,JP,1701922793
18,palmer,42.1584,-72.3287,-0.93,67,75,3.09,US,1701922758
19,morehead city,34.7229,-76.726,7.02,80,0,3.09,US,1701923295
20,butembo,0.15,29.2833,13.4,97,0,1.31,CD,1701923295
21,boca suno,-0.7167,-77.1333,21.33,99,92,0.28,EC,1701923296
22,vorgashor,67.5833,63.95,-27.95,100,93,1.74,RU,1701922707
23,fale old settlement,-9.3852,-171.2468,29.3,73,76,3.19,TK,1701922764
24,georgetown,5.4112,100.3354,31.96,70,20,4.63,MY,1701922568
25,talnakh,69.4865,88.3972,-23.43,99,100,3.18,RU,1701922734
26,atafu village,-8.5421,-172.5159,29.53,72,41,3.06,TK,1701922698
27,hammerfest,70.6634,23.6821,-6.75,73,47,7.2,NO,1701922983
28,olonkinbyen,70.9221,-8.7187,-4.03,88,100,7.96,SJ,1701922731
29,invercargill,-46.4,168.35,13.74,61,100,6.92,NZ,1701922759
30,hamilton,39.1834,-84.5333,1.24,86,0,2.06,US,1701922567
31,fort bragg,35.139,-79.006,4.75,61,0,2.57,US,1701922738
32,tsiombe,-25.3,45.4833,24.51,60,82,7.55,MG,1701922940
33,east london,-33.0153,27.9116,18.52,100,20,3.09,ZA,1701922730
34,ust-nera,64.5667,143.2,-45.08,92,71,0.9,RU,1701922762
35,geraldton,-28.7667,114.6,25.23,57,75,9.26,AU,1701922913
36,la passe,45.5549,-0.8967,3.88,79,100,6.29,FR,1701922790
37,ust'-kut,56.7938,105.7672,-34.2,89,24,1.79,RU,1701923304
38,iqaluit,63.7506,-68.5145,-15.15,85,0,3.6,CA,1701922741
39,bredasdorp,-34.5322,20.0403,16.24,95,14,2.56,ZA,1701923304
40,zalari,53.5584,102.5065,-14.53,90,100,5.7,RU,1701923305
41,marondera,-18.1853,31.5519,12.5,87,29,3.1,ZW,1701923306
42,zindah jan,34.3426,61.7468,11.05,23,100,2.58,AF,1701923306
43,kavaratti,10.5669,72.642,27.93,72,98,3.79,IN,1701922771
44,vangaindrano,-23.35,47.6,23.01,84,100,2.38,MG,1701923308
45,anadyr,64.75,177.4833,-19.72,77,100,11.0,RU,1701922767
46,molchanovo,57.5817,83.7692,-24.68,94,100,2.67,RU,1701923310
47,qaqortoq,60.7167,-46.0333,-0.65,70,100,0.65,GL,1701922713
48,constantia,44.1833,28.65,2.38,90,100,7.91,RO,1701922865
49,myeik,12.4333,98.6,29.09,69,9,1.45,MM,1701922746
50,tazovsky,67.4667,78.7,-21.77,96,100,6.51,RU,1701922601
51,champerico,14.3,-91.9167,26.85,80,27,0.86,GT,1701923312
52,whitehorse,60.7161,-135.0538,-1.57,80,100,6.69,CA,1701922799
53,padang,-0.9492,100.3543,31.03,75,80,1.82,ID,1701923313
54,lorengau,-2.0226,147.2712,27.66,84,100,5.29,PG,1701923008
55,katsuren-haebaru,26.3369,127.8719,22.21,49,20,4.12,JP,1701923313
56,bethel,41.3712,-73.414,0.2,71,0,2.57,US,1701922552
57,puerto natales,-51.7236,-72.4875,4.6,92,0,1.96,CL,1701923316
58,ishigaki,24.3448,124.1572,23.07,60,40,7.72,JP,1701922785
59,sogndal,61.2283,7.1003,-4.79,93,97,0.51,NO,1701923317
60,sakakah,29.9697,40.2064,14.76,53,1,2.92,SA,1701923318
61,horta,38.5333,-28.6333,16.12,79,63,1.79,PT,1701923319
62,bengkulu,-3.8004,102.2655,27.73,75,96,1.34,ID,1701923254
63,hithadhoo,-0.6,73.0833,27.44,81,52,4.24,MV,1701922754
64,wake village,33.4268,-94.1063,7.06,67,0,2.57,US,1701923100
65,vilyuchinsk,52.9306,158.4028,-4.85,77,2,1.17,RU,1701923322
66,tralee,52.2704,-9.7026,8.9,96,100,4.23,IE,1701923323
67,lihue,21.9789,-159.3672,26.58,83,40,4.63,US,1701922789
68,ancud,-41.8697,-73.8203,9.43,91,60,1.16,CL,1701922958
69,qamdo,31.1667,97.2333,-4.35,29,34,0.55,CN,1701923325
70,codrington,-38.2667,141.9667,20.51,41,72,5.87,AU,1701922994
71,heiligenhafen,54.3667,10.9833,0.03,95,100,2.27,DE,1701923327
72,thurso,58.5927,-3.5259,7.14,73,100,12.32,GB,1701923329
73,tangalle,6.024,80.7911,30.09,73,41,0.47,LK,1701923330
74,baymak,52.5933,58.3225,-20.69,98,16,1.73,RU,1701923330
75,punta arenas,-53.15,-70.9167,7.06,81,40,11.32,CL,1701922890
76,puerto ayora,-0.7393,-90.3518,24.03,86,93,3.5,EC,1701923331
77,la'ie,21.6477,-157.9253,26.98,77,46,4.47,US,1701922857
78,nouadhibou,20.931,-17.0347,20.91,71,100,4.6,MR,1701923332
79,lichuan,30.3,108.85,14.06,36,0,1.14,CN,1701923332
80,brookings,44.3114,-96.7984,5.06,66,0,1.54,US,1701923332
81,sharkan,57.2989,53.8712,-32.01,100,15,1.63,RU,1701923333
82,voi,-3.3945,38.563,22.63,91,82,0.9,KE,1701923333
83,kapa'a,22.0752,-159.319,26.99,86,40,4.63,US,1701923333
84,quelimane,-17.8786,36.8883,23.97,88,40,2.06,MZ,1701923333
85,turpan,42.9333,89.1667,5.61,34,73,0.99,CN,1701923334
86,happy valley-goose bay,53.3168,-60.3315,-6.83,68,100,5.14,CA,1701922784
87,yellowknife,62.456,-114.3525,-7.71,93,100,2.06,CA,1701923335
88,fuglafjordur,62.244,-6.814,4.26,73,25,11.12,FO,1701922807
89,aasiaat,68.7098,-52.8699,-6.75,81,62,6.68,GL,1701923335
90,leava,-14.3,-178.1667,28.33,75,99,6.65,WF,1701922528
91,xudat,41.631,48.681,10.08,88,100,2.77,AZ,1701923336
92,argo,37.6333,22.7333,11.55,75,100,1.49,GR,1701923048
93,yeniseysk,58.4497,92.1703,-25.59,91,100,2.24,RU,1701923052
94,vanimo,-2.6741,141.3028,30.06,71,88,4.6,PG,1701923338
95,strezhevoy,60.7333,77.5889,-29.46,91,6,4.02,RU,1701923339
96,badger,64.8,-147.5333,-14.45,87,100,1.54,US,1701922783
97,acarau,-2.8856,-40.12,26.87,81,30,7.73,BR,1701922905
98,papatowai,-46.5619,169.4708,14.04,53,96,6.62,NZ,1701923339
99,kavalerovo,44.2661,135.0572,-4.14,88,52,5.36,RU,1701923339
100,vysokiy,58.35,60.05,-38.34,100,27,1.21,RU,1701923340
101,el granada,37.5027,-122.4694,14.36,89,100,4.63,US,1701923340
102,san-pedro,4.7485,-6.6363,25.39,86,13,1.96,CI,1701923341
103,la ronge,55.1001,-105.2842,0.14,80,100,2.57,CA,1701923341
104,ketchikan,55.3422,-131.6461,5.99,93,100,2.06,US,1701922912
105,wailua homesteads,22.0669,-159.378,26.24,86,40,4.63,US,1701923342
106,curumani,9.1999,-73.5427,25.51,80,94,1.23,CO,1701923343
107,portrush,55.1959,-6.6493,8.73,89,100,12.48,GB,1701923344
108,st. john's,47.5649,-52.7093,-2.9,88,75,3.6,CA,1701922713
109,dar chioukh,34.8964,3.4854,6.32,96,84,1.7,DZ,1701923345
110,colonia,50.9333,6.95,2.36,90,18,1.63,DE,1701923192
111,thompson,55.7435,-97.8558,-6.91,93,0,1.54,CA,1701923345
112,banos,-1.4,-78.4167,15.38,92,99,0.2,EC,1701923346
113,port shepstone,-30.7414,30.455,20.5,86,100,8.85,ZA,1701923347
114,hawaiian paradise park,19.5933,-154.9731,23.73,89,40,2.06,US,1701923347
115,udachny,66.4167,112.4,-24.58,98,100,0.74,RU,1701923347
116,fort st. john,56.2499,-120.8529,-1.06,64,20,5.14,CA,1701923159
117,marsabit,2.3284,37.9899,19.02,61,0,3.3,KE,1701923348
118,tura,25.5198,90.2201,18.08,88,100,0.81,IN,1701922748
119,sitka,57.0531,-135.33,4.94,75,75,4.63,US,1701922789
120,zhanaozen,43.3,52.8,-0.28,61,100,10.43,KZ,1701923349
121,jacobina,-11.1806,-40.5183,18.15,96,10,1.19,BR,1701923350
122,turtas,58.9417,69.1325,-29.6,91,8,2.89,RU,1701923350
123,longyearbyen,78.2186,15.6401,-5.09,68,20,10.29,SJ,1701923085
124,utrik,11.2278,169.8474,27.45,77,98,10.25,MH,1701923351
125,solnechnyy,50.7214,136.6319,-9.43,90,100,1.23,RU,1701923352
126,morag,53.9171,19.926,-3.44,96,100,2.64,PL,1701923352
127,north battleford,52.7834,-108.2847,4.67,70,100,3.09,CA,1701923352
128,sinabang,2.4803,96.3801,25.76,88,100,1.42,ID,1701922929
129,newman,37.3138,-121.0208,13.49,80,32,0.89,US,1701922840
130,arkhara,49.4212,130.0842,-13.56,89,99,2.24,RU,1701923353
131,maun,-19.9833,23.4167,25.98,47,0,3.09,BW,1701923353
132,khromtau,50.2503,58.4347,-11.97,82,9,1.63,KZ,1701923354
133,kruisfontein,-34.0033,24.7314,19.38,86,48,1.4,ZA,1701922767
134,lalibela,12.0333,39.0333,13.39,52,60,2.4,ET,1701923355
135,mahina,-17.5065,-149.489,24.87,88,75,4.63,PF,1701923356
136,celestun,20.8667,-90.4,22.83,70,100,5.7,MX,1701923356
137,walvis bay,-22.9575,14.5053,15.61,94,100,0.51,NA,1701923357
138,nuuk,64.1835,-51.7216,6.34,36,98,8.75,GL,1701923357
139,ust-tsilma,65.441,52.1498,-33.55,100,33,1.34,RU,1701922759
140,hotan,37.0997,79.9269,12.01,7,4,1.5,CN,1701923358
141,aykhal,66.0,111.5,-24.11,98,100,1.96,RU,1701922956
142,ciudad lazaro cardenas,17.9583,-102.2,24.29,80,54,1.55,MX,1701923165
143,kailua-kona,19.6406,-155.9956,25.98,76,100,2.57,US,1701922640
144,labytnangi,66.6572,66.4183,-29.78,98,85,2.02,RU,1701922799
145,kashmar,35.2383,58.4656,9.9,23,100,1.64,IR,1701923359
146,pisco,-13.7,-76.2167,19.03,88,0,4.63,PE,1701922961
147,seryshevo,51.0933,128.3786,-16.72,75,76,3.28,RU,1701923360
148,enewetak,11.3474,162.3373,27.71,79,87,9.36,MH,1701922766
149,rastede,53.25,8.2,2.23,99,100,2.45,DE,1701923361
150,donetsk,48.0,37.8,-1.23,86,100,5.94,UA,1701923362
151,tukrah,32.5341,20.5791,16.98,69,100,4.7,LY,1701923363
152,mabaruma,8.2,-59.7833,22.35,99,100,1.2,GY,1701923041
153,blackmans bay,-43.0167,147.3167,24.18,39,100,1.26,AU,1701923364
154,allonnes,47.9674,0.1581,5.02,87,0,2.06,FR,1701923364
155,zakynthos,37.7914,20.8953,12.58,71,100,2.52,GR,1701923364
156,pinhao,-25.6956,-51.6597,17.85,98,99,0.91,BR,1701923365
157,makassar,-5.14,119.4221,31.03,70,20,2.57,ID,1701923365
158,kayangel,8.0823,134.7173,28.68,76,98,5.63,PW,1701922822
159,ginir,7.1333,40.7,13.47,45,8,1.65,ET,1701923365
160,ramnagar,29.4,79.1167,21.3,36,0,1.14,IN,1701923366
161,el charco,2.4769,-78.1105,23.32,93,99,0.84,CO,1701923366
162,carnarvon,-24.8667,113.6333,26.79,54,0,7.98,AU,1701922911
163,tomatlan,19.9333,-105.25,22.72,73,47,1.27,MX,1701923367
164,baukau,51.5526,7.2042,3.0,98,24,1.79,DE,1701923367
165,meizhou,24.2977,116.1072,22.87,26,43,1.37,CN,1701923190
166,bandarbeyla,9.4942,50.8122,24.56,61,100,8.99,SO,1701923368
167,dakhla,23.6848,-15.958,20.08,68,100,6.18,EH,1701923177
168,arraial do cabo,-22.9661,-42.0278,23.75,91,42,10.64,BR,1701923369
169,ndele,8.4109,20.6473,23.02,29,100,1.41,CF,1701923369
170,muleshoe,34.2265,-102.7238,8.16,66,38,4.62,US,1701923361
171,mahibadhoo,3.7833,72.9667,28.54,75,100,5.63,MV,1701923370
172,oranjemund,-28.55,16.4333,15.64,96,32,1.01,NA,1701923371
173,wynyard,-41.0,145.7167,20.8,46,96,6.54,AU,1701923371
174,pemangkat,1.1667,108.9667,27.45,82,100,2.35,ID,1701923371
175,susuman,62.7833,148.1667,-43.9,96,92,0.45,RU,1701923372
176,barranca,-10.75,-77.7667,19.1,87,91,3.01,PE,1701923372
177,petropavlovsk-kamchatsky,53.0452,158.6483,-5.67,72,20,3.0,RU,1701923372
178,kourou,5.1552,-52.6478,27.03,92,34,2.78,GF,1701923372
179,sao jose da coroa grande,-8.8978,-35.1478,24.76,84,17,3.17,BR,1701923373
180,vuktyl,63.8567,57.3094,-34.38,100,55,0.45,RU,1701923373
181,chui,-33.6971,-53.4616,18.62,96,68,1.78,UY,1701922659
182,enriquillo,17.9,-71.2333,25.39,79,22,3.14,DO,1701923374
183,arawa,-6.2132,155.5367,31.54,62,94,1.46,PG,1701922793
184,howrah,22.5892,88.3103,20.0,88,100,3.6,IN,1701922661
185,saskatoon,52.1168,-106.6345,2.99,83,75,3.6,CA,1701923375
186,san patricio,28.017,-97.5169,17.92,79,100,2.98,US,1701923376
187,college,64.8569,-147.8028,-14.4,86,100,1.54,US,1701922800
188,clarion,41.2148,-79.3853,0.1,89,73,1.93,US,1701923377
189,ilulissat,69.2167,-51.1,1.01,47,20,8.23,GL,1701923378
190,tahoua,14.8888,5.2692,20.45,16,49,4.49,NE,1701923378
191,port mathurin,-19.6833,63.4167,26.23,76,6,3.67,MU,1701923379
192,verdal,63.7933,11.4817,-11.98,73,100,2.29,NO,1701922930
193,bikenibeu village,1.3673,173.1241,27.14,85,99,6.62,KI,1701922909
194,al ghayzah,16.2079,52.176,23.77,59,5,2.85,YE,1701923012
195,ushuaia,-54.8,-68.3,6.81,93,75,9.26,AR,1701923293
196,tofol,5.3248,163.0078,27.77,81,58,9.39,FM,1701922873
197,haiku-pauwela,20.9219,-156.3051,24.47,68,20,5.14,US,1701923381
198,vadso,70.0744,29.7487,-10.91,92,100,5.66,NO,1701922816
199,saudarkrokur,65.7461,-19.6394,-6.14,59,0,2.53,IS,1701923055
200,shingu,33.7333,135.9833,14.92,51,2,7.04,JP,1701923382
201,saint-pierre,-21.3393,55.4781,28.65,69,0,6.69,RE,1701923382
202,revda,56.801,59.9303,-32.64,100,28,0.76,RU,1701923013
203,tobelo,1.7284,128.0095,28.76,77,99,1.94,ID,1701923383
204,nema,57.5067,50.5011,-30.89,99,34,1.37,RU,1701923384
205,lubawa,53.5043,19.7497,-2.84,95,100,3.07,PL,1701923384
206,port elizabeth,-33.918,25.5701,20.61,94,40,4.63,ZA,1701923384
207,bereznik,62.8551,42.7072,-23.82,98,57,1.46,RU,1701922857
208,terenozek,45.05,64.9833,-4.53,53,80,4.66,KZ,1701923385
209,rahachow,53.0934,30.0495,-14.48,96,92,3.16,BY,1701923385
210,bilibino,68.0546,166.4372,-31.33,100,100,1.6,RU,1701923385
211,yelanskiy,56.8419,62.5014,-32.79,97,9,2.34,RU,1701923386
212,khandyga,62.6667,135.6,-40.86,95,97,0.95,RU,1701923387
213,lagunas,-5.2269,-75.6753,21.4,98,100,1.08,PE,1701923387
214,dolzhanskaya,46.6311,37.8039,2.29,89,100,10.87,RU,1701923387
215,kindu,-2.95,25.95,21.08,100,98,0.58,CD,1701923388
216,antsiranana,-12.2787,49.2917,26.69,68,54,6.04,MG,1701923388
217,goito,45.2549,10.6721,2.15,83,0,2.35,IT,1701923388
218,thunder bay,48.4001,-89.3168,0.99,86,100,2.57,CA,1701923389
219,kikwit,-5.041,18.8162,21.09,99,100,0.8,CD,1701923389
220,sylvan lake,52.3168,-114.0853,1.76,93,100,3.6,CA,1701923390
221,tommot,58.9564,126.2925,-31.25,90,100,2.09,RU,1701923390
222,west island,-12.1568,96.8225,28.99,74,40,4.12,CC,1701923391
223,sabana de torres,7.3915,-73.4957,26.34,90,100,1.27,CO,1701923391
224,zambezi,-13.5432,23.1047,20.09,80,46,1.82,ZM,1701923391
225,avarua,-21.2078,-159.775,25.03,83,75,5.66,CK,1701923391
226,gao,16.6362,1.637,21.89,16,0,4.4,ML,1701923392
227,nakamura,32.9833,132.9333,14.53,48,2,4.99,JP,1701923392
228,cooma,-36.2333,149.1333,29.09,25,81,8.21,AU,1701923392
229,grand falls-windsor,48.9332,-55.6649,-8.41,96,53,1.04,CA,1701922840
230,port alfred,-33.5906,26.891,18.99,92,49,0.89,ZA,1701923279
231,belomorsk,64.5232,34.7668,-18.65,99,60,1.16,RU,1701923393
232,anloga,5.7947,0.8973,27.83,76,90,4.13,GH,1701923393
233,salinopolis,-0.6136,-47.3561,27.14,83,78,4.87,BR,1701923394
234,balabac,7.9868,117.0645,29.42,72,100,4.2,PH,1701923394
235,uturoa,-16.7333,-151.4333,26.05,81,100,6.31,PF,1701923394
236,barra de santo antonio,-9.4047,-35.5072,23.6,84,53,3.68,BR,1701922942
237,wotho,10.1657,166.0102,27.67,78,99,10.18,MH,1701923395
238,noshiro,40.2039,140.0242,8.46,73,100,9.31,JP,1701923395
239,point pedro,9.8167,80.2333,27.79,80,17,2.49,LK,1701923395
240,keila,59.3036,24.4131,-9.42,95,0,3.6,EE,1701923396
241,viana,-20.3903,-40.4961,24.87,97,96,1.71,BR,1701923396
242,sandnessjoen,66.0217,12.6316,-4.71,77,100,6.72,NO,1701923396
243,bardai,11.65,7.2333,18.16,18,18,4.19,NG,1701922950
244,bureya,49.8133,129.8131,-13.46,86,99,1.52,RU,1701923397
245,la aldea,20.9,-101.4833,14.29,82,100,0.0,MX,1701923397
246,punta del este,-34.9667,-54.95,20.06,100,75,4.12,UY,1701922911
247,fada,9.5667,8.3,19.87,19,34,2.88,NG,1701923398
248,greymouth,-42.4667,171.2,15.24,61,4,5.67,NZ,1701922891
249,seydi,39.4816,62.9137,5.43,54,100,5.59,TM,1701923398
250,pimentel,-6.8367,-79.9342,20.16,88,0,7.2,PE,1701923398
251,zaysan,47.4667,84.8667,-4.6,67,89,5.53,KZ,1701922878
252,malango,-2.9627,119.9001,27.07,68,100,0.77,ID,1701923398
253,gadzhiyevo,69.2551,33.3362,-14.65,95,71,5.19,RU,1701923398
254,hasaki,35.7333,140.8333,20.16,50,0,12.3,JP,1701922939
255,hermanus,-34.4187,19.2345,16.81,88,5,4.59,ZA,1701923399
256,margaret river,-33.95,115.0667,20.36,52,100,7.5,AU,1701923400
257,bernardo de irigoyen,-26.2552,-53.6458,19.4,99,100,1.13,AR,1701923400
258,iskateley,67.6803,53.1512,-15.52,97,100,3.5,RU,1701923401
259,adoru,6.9766,7.1627,23.5,91,69,1.18,NG,1701923402
260,pionerskiy,54.9508,20.2275,-2.09,84,100,5.89,RU,1701923403
261,waingapu,-9.6567,120.2641,31.62,62,68,4.22,ID,1701923405
262,betio village,1.358,172.9211,27.44,83,100,6.2,KI,1701923407
263,osterburg,52.7833,11.7667,1.18,99,100,2.13,DE,1701923408
264,okhotsk,59.3833,143.3,-15.38,92,100,5.41,RU,1701922819
265,azemmour,33.2895,-8.3425,15.76,90,99,2.18,MA,1701923409
266,tinajo,29.0788,-13.7081,16.49,77,0,2.57,ES,1701923409
267,el haouaria,37.05,11.0144,11.01,70,28,8.98,TN,1701923410
268,lensk,60.7253,114.9278,-34.24,93,93,1.97,RU,1701923410
269,chonchi,-42.6128,-73.8092,8.56,93,32,1.28,CL,1701923411
270,dwarka,22.2394,68.9678,24.65,55,0,6.66,IN,1701923411
271,heihe,50.2441,127.4902,-13.68,75,100,1.37,CN,1701923411
272,poso,-1.3959,120.7524,31.33,62,73,2.25,ID,1701923411
273,caleta de carquin,-11.0925,-77.6267,19.57,87,82,4.07,PE,1701922872
274,bondo,3.8146,23.6866,21.56,97,100,0.27,CD,1701923413
275,nagqu,31.5,92.0,-8.39,60,6,1.03,CN,1701923413
276,usol'ye,59.4268,56.6808,-34.57,100,74,0.28,RU,1701923413
277,dudinka,69.4058,86.1778,-22.4,97,100,4.47,RU,1701923414
278,nar'yan-mar,67.6713,53.087,-15.31,97,100,3.59,RU,1701923414
279,jamestown,42.097,-79.2353,0.77,97,100,2.57,US,1701923414
280,laminusa,5.5549,120.9136,28.44,77,74,3.7,PH,1701923415
281,ghat,24.9647,10.1728,15.96,19,2,2.67,LY,1701923415
282,chardara,41.2547,67.9692,3.88,46,100,4.77,KZ,1701923416
283,benjamin constant,-4.3831,-70.0311,25.07,99,97,1.0,BR,1701922888
284,as samawah,31.332,45.2944,18.9,28,69,1.11,IQ,1701923417
285,arteche,12.2645,125.4048,28.68,65,100,3.24,PH,1701923417
286,paradip garh,20.3167,86.6167,23.52,81,99,6.02,IN,1701923041
287,pinheiro,-2.5214,-45.0825,24.01,95,42,1.23,BR,1701923174
288,coahuayana de hidalgo,18.7,-103.6583,23.86,80,69,2.16,MX,1701923419
289,rajgarh,28.6333,75.3833,20.43,24,0,1.1,IN,1701923419
290,broken hill,-31.95,141.4333,40.26,12,94,8.58,AU,1701923420
291,petauke,-14.2426,31.3253,22.89,48,19,5.55,ZM,1701923421
292,megion,61.0296,76.1136,-34.99,90,6,3.4,RU,1701923421
293,kencong,-8.2833,113.3667,30.57,61,95,3.28,ID,1701923422
294,cienfuegos,22.1461,-80.4356,17.08,77,96,3.09,CU,1701923423
295,nadi,-17.8,177.4167,29.0,70,75,2.57,FJ,1701922961
296,zuunmod,47.7069,106.9528,-10.43,81,97,3.67,MN,1701923424
297,portland,45.5234,-122.6762,9.49,96,75,4.02,US,1701922940
298,ingeniero guillermo n. juarez,-23.9,-61.85,22.55,97,100,3.9,AR,1701923424
299,mutuali,-14.8706,37.0044,23.55,70,90,1.39,MZ,1701923425
300,nova sintra,14.8667,-24.7167,21.48,70,97,6.55,CV,1701923425
301,buritis,-15.6178,-46.4233,22.07,47,29,0.58,BR,1701923426
302,afaahiti,-17.75,-149.2833,23.93,90,100,8.59,PF,1701923427
303,flying fish cove,-10.4217,105.6791,28.82,74,40,4.12,CX,1701923427
304,santa cruz de barahona,18.2085,-71.1008,24.52,78,21,2.06,DO,1701923428
305,bella vista,36.4295,-94.2316,9.29,56,0,3.6,US,1701923428
306,saipan,15.1355,145.701,29.39,74,40,4.12,MP,1701923429
307,baoqing,46.3317,132.2111,-9.31,76,5,4.76,CN,1701923430
308,lebu,-37.6167,-73.65,11.63,93,7,6.78,CL,1701923430
309,gebeit,21.0667,36.3167,21.15,85,6,3.0,SD,1701923430
310,magadan,59.5667,150.8,-11.51,95,100,9.28,RU,1701923431
311,praia da vitoria,38.7333,-27.0667,17.14,77,20,4.09,PT,1701923431
312,island harbour,50.724,-1.2758,8.42,91,100,5.81,GB,1701923432
313,grajau,-5.8194,-46.1386,26.14,73,72,1.12,BR,1701923433
314,whitefish,48.4111,-114.3376,5.42,98,100,1.54,US,1701923433
315,coxen hole,16.3244,-86.5366,26.69,75,51,6.17,HN,1701923166
316,liuduzhai,27.3661,110.935,21.3,35,7,1.66,CN,1701923434
317,ashkasham,36.6833,71.5333,-1.16,26,0,1.01,AF,1701923435
318,niquero,20.0431,-77.5828,23.9,87,8,7.78,CU,1701923435
319,pasuquin,18.3328,120.6177,29.97,70,40,6.17,PH,1701923437
320,canton,23.1167,113.25,23.26,30,94,3.14,CN,1701923274
321,miquelon,47.0975,-56.3814,-2.0,62,98,7.5,PM,1701923438
322,i-n-salah,27.1935,2.4607,16.72,35,0,3.69,DZ,1701922987
323,north branch,45.5113,-92.9802,4.55,92,80,1.71,US,1701923438
324,itoman,26.1247,127.6694,22.21,53,20,5.66,JP,1701923438
325,villa gesell,-37.2639,-56.973,15.59,96,100,6.14,AR,1701923056
326,les cayes,18.2,-73.75,24.83,83,4,3.46,HT,1701923439
327,coquimbo,-29.9533,-71.3436,13.85,88,0,0.0,CL,1701923165
328,cold lake,54.4502,-110.2017,-2.03,93,100,0.0,CA,1701923199
329,mangalia,43.8,28.5833,9.07,90,100,6.85,RO,1701923441
330,gamay,12.3854,125.2979,28.75,65,100,3.2,PH,1701923441
331,pingxiang,27.6167,113.85,21.13,29,0,1.8,CN,1701923442
332,motueka,-41.1333,173.0167,18.79,60,2,4.12,NZ,1701923442
333,angul,20.85,85.1,21.97,77,100,3.16,IN,1701923442
334,steinbach,50.1667,8.5667,1.21,97,20,0.51,DE,1701923443
335,gobabis,-22.45,18.9667,23.12,20,93,4.44,NA,1701922879
336,chapaev,50.2,51.1667,-7.23,95,87,2.78,KZ,1701923444
337,hovd,48.0056,91.6419,-0.79,24,19,11.75,MN,1701923444
338,lompoc,34.6391,-120.4579,13.11,87,75,2.24,US,1701923444
339,mata-utu,-13.2816,-176.1745,28.53,78,94,6.03,WF,1701923444
340,mar del plata,-38.0023,-57.5575,16.01,94,75,5.36,AR,1701923445
341,luderitz,-26.6481,15.1594,15.53,89,15,3.48,NA,1701922957
342,nazarovo,56.0064,90.3914,-22.73,94,100,2.87,RU,1701923445
343,pont-audemer,49.35,0.5167,5.86,90,100,5.21,FR,1701923446
344,sandorfalva,46.3609,20.0989,0.64,99,100,2.95,HU,1701923391
345,toliara,-23.35,43.6667,25.13,68,7,7.33,MG,1701922903
346,floro,61.5996,5.0328,5.54,80,100,5.66,NO,1701923447
347,neiafu,-18.65,-173.9833,27.01,80,17,5.22,TO,1701923448
348,cole harbour,44.6724,-63.4751,-5.72,88,91,0.89,CA,1701923448
349,ust'-ilimsk,58.0006,102.6619,-36.42,91,19,1.79,RU,1701923448
350,beloslav,43.1833,27.7,10.69,87,100,1.54,BG,1701923449
351,balikpapan,-1.2675,116.8289,26.55,83,20,1.54,ID,1701923449
352,messias,-9.3833,-35.8417,22.84,94,100,2.57,BR,1701923449
353,faya-largeau,17.9257,19.1043,17.07,31,1,5.61,TD,1701923450
354,sola,-13.8833,167.55,27.34,82,89,7.39,VU,1701923450
355,fredericksburg,38.3032,-77.4605,3.11,73,0,11.18,US,1701923356
356,undurkhaan,47.3194,110.6556,-2.25,82,46,5.79,MN,1701923451
357,ntui,4.45,11.6333,20.44,98,89,0.5,CM,1701923451
358,cabedelo,-6.9811,-34.8339,25.37,78,63,2.99,BR,1701922870
359,zhangjiakou,40.81,114.8794,2.82,37,69,0.72,CN,1701922982
360,angaur state,6.906,134.13,28.78,75,100,4.63,PW,1701923452
361,kapuskasing,49.4169,-82.4331,-4.95,93,100,4.12,CA,1701922840
362,port douglas,-16.4833,145.4667,28.15,60,71,5.38,AU,1701923452
363,ulanhot,46.0833,122.0833,-7.42,45,59,2.77,CN,1701923453
364,shinkafi,13.0753,6.5105,18.16,19,16,4.29,NG,1701923453
365,saldanha,-33.0117,17.9442,15.03,84,0,4.23,ZA,1701923453
366,mwinilunga,-11.7358,24.4293,18.81,77,89,0.35,ZM,1701923454
367,kirensk,57.7853,108.1119,-42.24,97,78,1.34,RU,1701923455
368,saint croix,17.7397,-64.7388,24.42,83,20,2.06,VI,1701923455
369,rio san juan,19.6439,-70.0763,23.98,84,22,3.32,DO,1701923455
370,tabou,4.423,-7.3528,25.77,84,18,1.66,CI,1701922897
371,yerofey pavlovich,53.9667,121.9667,-22.82,67,63,1.22,RU,1701923456
372,sur,22.5667,59.5289,24.8,40,0,1.11,OM,1701923456
373,mandalgovi,45.7625,106.2708,1.61,51,42,9.3,MN,1701923457
374,sarikei,2.1167,111.5167,24.12,95,100,0.8,MY,1701923457
375,andalgala,-27.5819,-66.3165,17.73,69,97,0.71,AR,1701923457
376,ustka,54.5805,16.8619,-1.86,95,100,4.56,PL,1701923457
377,konarka,19.9,86.1167,21.22,81,98,6.5,IN,1701923457
378,saint-philippe,-21.3585,55.7679,27.84,74,32,3.26,RE,1701923458
379,kharovsk,59.9642,40.1912,-14.68,99,93,0.77,RU,1701923459
380,egilsstadir,65.2653,-14.3948,-6.05,93,75,1.03,IS,1701923007
381,benjamin hill,30.1667,-111.1,16.5,27,0,2.37,MX,1701923459
382,toulepleu guere,6.574,-8.4259,21.61,99,8,0.77,CI,1701923460
383,cosne-cours-sur-loire,47.3333,3.1667,1.47,94,100,3.09,FR,1701923460
384,khabary,53.6259,79.5345,-20.92,92,100,4.73,RU,1701923460
385,nabari,34.6167,136.0833,14.46,53,37,7.26,JP,1701923461
386,sambava,-14.2667,50.1667,27.23,63,35,2.96,MG,1701923461
387,erenhot,43.6475,111.9767,2.7,49,7,9.39,CN,1701923461
388,sovetskaya gavan',48.9723,140.2878,-2.16,87,100,2.49,RU,1701922961
389,sao joao del rei,-21.1356,-44.2617,18.95,93,37,0.62,BR,1701923462
390,guerrero negro,27.9769,-114.0611,18.61,75,0,3.97,MX,1701923463
391,taoudenni,22.6783,-3.9836,19.19,16,98,3.69,ML,1701922981
392,lan sak,15.4529,99.5761,26.31,67,97,2.51,TH,1701923463
393,selfoss,63.9331,-20.9971,-2.98,51,43,5.17,IS,1701922920
394,shimoda,34.6667,138.95,18.2,57,0,13.84,JP,1701923464
395,namibe,-15.1961,12.1522,22.83,88,100,1.53,AO,1701922914
396,zhangjiajie,29.1294,110.4783,21.3,39,0,2.45,CN,1701923465
397,hami,42.8,93.45,3.97,35,85,1.7,CN,1701923467
398,berezovyy,51.6667,135.7,-8.22,80,100,0.33,RU,1701923468
399,selkirk,50.1436,-96.8845,2.04,85,45,1.91,CA,1701923468
400,kefamenanu,-9.4467,124.4781,34.05,40,48,3.66,ID,1701923470
401,carauari,-4.8828,-66.8958,23.08,99,100,0.78,BR,1701923470
402,sao felix do xingu,-6.6447,-51.995,24.38,75,15,0.31,BR,1701923470
403,bonthe,7.5264,-12.505,25.73,87,0,0.4,SL,1701922964
404,alice springs,-23.7,133.8833,38.75,18,40,5.66,AU,1701923348
405,inhambane,-23.865,35.3833,24.99,74,96,4.94,MZ,1701923472
406,price,39.5994,-110.8107,1.18,80,0,3.09,US,1701923472
407,kone,-21.0595,164.8658,28.05,53,97,4.44,NC,1701923473
408,fortuna,40.5982,-124.1573,10.75,96,100,1.79,US,1701923474
409,dabai,11.4765,5.2063,19.85,20,19,3.32,NG,1701923475
410,ha'il,27.5219,41.6907,11.01,46,0,1.03,SA,1701923475
411,agat village,13.3886,144.6585,31.52,72,40,5.14,GU,1701923476
412,ilhabela,-23.7781,-45.3581,25.46,85,90,1.28,BR,1701923271
413,nadym,65.5333,72.5167,-30.7,96,94,3.88,RU,1701923477
414,severo-yeniseyskiy,60.3725,93.0408,-35.79,92,39,0.45,RU,1701923477
415,rio preto da eva,-2.6994,-59.6997,26.32,66,52,1.15,BR,1701923477
416,klyuchi,52.2667,79.1667,-14.51,65,100,6.14,RU,1701923477
417,mil'kovo,55.6078,37.7956,-10.73,100,100,1.3,RU,1701923050
418,firuzabad,28.8438,52.5707,14.09,40,0,1.03,IR,1701923479
419,xinyuan,37.3,99.0,-1.31,13,0,4.83,CN,1701923479
420,leiyang,26.4024,112.8591,21.34,33,3,1.58,CN,1701923480
421,uige,-7.6087,15.0613,17.7,99,95,0.92,AO,1701923480
422,kupang,-10.1667,123.5833,33.32,70,75,2.06,ID,1701923481
423,port isabel,26.0734,-97.2086,19.02,88,0,1.54,US,1701923481
424,new norfolk,-42.7826,147.0587,21.72,31,100,3.26,AU,1701923013
425,bathsheba,13.2167,-59.5167,27.34,83,40,7.2,BB,1701923482
426,torghay,49.6339,63.4981,-10.19,72,15,4.01,KZ,1701923483
427,ras al khaimah city,25.7895,55.9432,19.12,88,46,1.54,AE,1701923483
428,saint-joseph,-21.3667,55.6167,28.04,72,30,3.4,RE,1701923484
429,sidi ifni,29.3797,-10.173,12.86,84,97,0.93,MA,1701923484
430,dursunbey,39.586,28.6257,7.77,87,100,1.91,TR,1701923485
431,pico truncado,-46.7949,-67.9573,8.9,69,25,2.39,AR,1701923486
432,ban na san,8.8004,99.3637,30.48,99,57,0.53,TH,1701923486
433,prien,30.1819,-93.2738,9.01,79,0,0.0,US,1701923487
434,xinyu,27.8043,114.9334,20.45,35,0,2.94,CN,1701923488
435,takoradi,4.8845,-1.7554,26.3,81,95,2.35,GH,1701923489
436,akureyri,65.6835,-18.0878,-14.04,92,6,1.54,IS,1701923020
437,navlya,52.8281,34.4989,-13.44,97,64,3.32,RU,1701923489
438,kavieng,-2.5744,150.7967,28.44,75,90,4.71,PG,1701923490
439,langcangan,8.4794,123.7558,28.34,77,45,2.85,PH,1701923490
440,acapulco de juarez,16.8634,-99.8901,27.9,89,100,2.06,MX,1701923033
441,kibaya,-5.3,36.5667,18.72,85,62,1.13,TZ,1701923491
442,kutum,14.2,24.6667,14.52,19,38,2.7,SD,1701923492
443,arkhangel'sk,64.5401,40.5433,-21.6,76,0,2.0,RU,1701923492
444,cockburn town,21.4612,-71.1419,26.63,75,19,4.94,TC,1701923493
445,vorkuta,67.5,64.0,-27.27,100,97,1.89,RU,1701923493
446,zhezqazghan,47.7833,67.7667,-10.68,73,40,4.0,KZ,1701923493
447,emerald,-23.5333,148.1667,32.97,33,0,9.39,AU,1701922943
448,tolanaro,-25.0319,46.9987,25.04,65,75,6.69,MG,1701923494
449,buala,-8.145,159.5921,27.52,85,98,6.41,SB,1701923495
450,nguigmi,14.2495,13.1092,19.29,27,6,5.42,NE,1701923496
451,dalandzadgad,43.5708,104.425,6.75,28,32,5.65,MN,1701923496
452,talcahuano,-36.7167,-73.1167,13.82,88,0,3.09,CL,1701922959
453,colchani,-20.3,-66.9333,11.33,22,55,2.07,BO,1701923496
454,poronaysk,49.2167,143.1167,2.71,99,100,4.47,RU,1701923497
455,kalulushi,-12.8378,28.0919,20.22,73,89,1.97,ZM,1701923497
456,palopo,-2.9996,120.1921,28.98,74,100,2.89,ID,1701923497
457,luang prabang,19.8856,102.1347,26.98,47,20,4.12,LA,1701923212
458,ji'an,27.1172,114.9793,19.31,41,0,2.39,CN,1701922945
459,cave creek,33.8333,-111.9508,19.32,32,4,1.34,US,1701923498
460,santa vitoria do palmar,-33.5189,-53.3681,18.85,95,92,2.06,BR,1701923499
461,siwa oasis,29.2041,25.5195,13.76,56,84,1.88,EG,1701923499
462,touros,-5.1989,-35.4608,26.09,79,73,5.29,BR,1701922839
463,buulobarde,3.8538,45.5674,25.53,55,10,7.49,SO,1701923500
464,constitucion,-35.3333,-72.4167,14.63,74,0,3.21,CL,1701923501
465,moranbah,-22.0016,148.0466,34.77,18,2,10.76,AU,1701923501
466,san carlos,9.6612,-68.5827,23.87,69,90,1.59,VE,1701923401
467,midvagur,62.0511,-7.1939,4.46,75,20,7.72,FO,1701923502
468,conduaga,8.862,117.4893,29.9,73,76,3.99,PH,1701923502
469,goleniow,53.5639,14.8285,-1.16,93,100,4.12,PL,1701923503
470,puerto baquerizo moreno,-0.9,-89.6,23.72,86,79,4.56,EC,1701922949
471,onega,63.9061,38.1404,-19.69,98,78,2.06,RU,1701923503
472,namie,37.4833,141.0,13.64,58,14,8.87,JP,1701923503
473,isangel,-19.55,169.2667,28.06,57,100,3.6,VU,1701923503
474,ponta delgada,37.7333,-25.6667,18.44,82,75,5.14,PT,1701923503
475,prince rupert,54.3161,-130.3201,5.83,88,100,8.23,CA,1701922970
476,fort-shevchenko,44.5086,50.263,1.99,66,100,11.5,KZ,1701923504
477,cannonvale,-20.2833,148.7,27.66,64,29,8.73,AU,1701923504
478,dawson creek,55.7666,-120.2362,-3.2,68,0,0.0,CA,1701922978
479,cabo san lucas,22.8909,-109.9124,24.17,76,8,0.45,MX,1701923239
480,andirin,37.5776,36.3549,7.72,91,100,1.62,TR,1701923505
481,broome,42.2506,-75.833,-1.28,77,100,5.14,US,1701923506
482,san antonio de pale,-1.4014,5.6325,26.17,83,96,4.77,GQ,1701923506
483,mukalla,14.5425,49.1242,24.8,57,29,0.68,YE,1701923506
484,pariaman,-0.619,100.12,31.03,81,93,1.67,ID,1701923507
485,karlshamn,56.1706,14.8619,0.51,99,100,4.12,SE,1701923507
486,batac city,18.0554,120.5649,29.88,70,40,6.17,PH,1701923507
487,coventry,52.4066,-1.5122,5.8,95,20,7.2,GB,1701923249
488,bubaque,11.2833,-15.8333,27.66,58,4,1.65,GW,1701923508
489,val-d'or,48.1002,-77.7828,-16.95,92,75,2.57,CA,1701923508
490,manokwari,-0.8667,134.0833,27.69,75,100,0.39,ID,1701922999
491,ghadamis,30.1337,9.5007,11.91,36,46,2.59,LY,1701923509
492,kingscliff,-28.2667,153.5667,29.29,61,1,4.63,AU,1701923509
493,fortaleza,-3.7227,-38.5247,29.48,70,75,5.66,BR,1701923390
494,arnstadt,50.8333,10.95,1.86,90,100,3.6,DE,1701923510
495,kenai,60.5544,-151.2583,-7.7,94,0,2.06,US,1701922917
496,swakopmund,-22.6833,14.5333,15.55,87,10,1.34,NA,1701922952
497,esmeraldas,-19.7625,-44.3139,22.48,62,5,2.0,BR,1701923510
498,polyarnyy,69.1989,33.4478,-14.23,94,61,5.38,RU,1701923511
499,jiwani,25.05,61.7417,23.75,46,0,2.56,PK,1701923511
500,richards bay,-28.783,32.0377,19.99,90,100,1.98,ZA,1701923512
501,chos malal,-37.3781,-70.2709,16.86,42,10,1.72,AR,1701923512
502,nowy dwor mazowiecki,52.4302,20.7165,-0.35,93,75,4.12,PL,1701923512
503,indre arna,60.4247,5.4764,2.03,89,92,2.36,NO,1701923513
504,brasilia de minas,-16.2064,-44.4333,21.44,54,36,3.48,BR,1701923513
505,dryden,49.7833,-92.7503,-1.84,93,0,3.09,CA,1701923514
506,smirnykh,49.75,142.8333,1.33,98,100,2.53,RU,1701923514
507,bilokurakyne,49.5341,38.7307,-2.94,86,100,6.27,UA,1701923514
508,maceio,-9.6658,-35.7353,23.69,94,100,2.57,BR,1701923515
509,george town,5.4112,100.3354,31.96,70,20,4.63,MY,1701923378
510,noyabrsk,63.1994,75.4507,-33.76,100,19,1.79,RU,1701923515
511,harstad,68.799,16.5293,-2.14,93,100,8.05,NO,1701923516
512,kroya,-7.6331,109.2461,29.99,62,47,3.39,ID,1701923516
513,ola,59.5833,151.2833,-11.62,94,100,10.28,RU,1701923516
514,christchurch,-43.5333,172.6333,18.63,56,75,10.29,NZ,1701923426
515,ternate,0.8,127.4,29.88,69,37,3.71,ID,1701923516
516,tamanrasset,22.785,5.5228,12.95,22,0,4.12,DZ,1701923516
517,visakhapatnam,17.69,83.2093,25.94,89,40,1.54,IN,1701923516
518,lanett,32.8687,-85.1905,3.36,93,0,0.0,US,1701923517
519,tshabong,-26.05,22.45,27.88,29,38,7.74,BW,1701923517
520,guangming,45.3333,122.7833,-5.1,40,22,2.59,CN,1701923517
521,cuencame de ceniceros,24.8711,-103.6964,13.09,87,100,0.86,MX,1701923518
522,iquique,-20.2208,-70.1431,19.02,76,23,0.95,CL,1701923262
523,murun-kuren,49.6342,100.1625,-4.4,71,85,9.21,MN,1701923518
524,port maria,18.3685,-76.8895,27.98,98,5,2.72,JM,1701923519
525,takum,7.2667,9.9833,22.41,33,100,0.68,NG,1701923519
526,kerikeri,-35.2268,173.9474,22.17,70,16,0.89,NZ,1701923519
527,paracuru,-3.41,-39.0306,27.84,74,68,6.14,BR,1701922967
528,kalmunai,7.4167,81.8167,28.74,75,98,2.7,LK,1701923520
529,xifeng,42.7372,124.7222,-0.2,32,0,3.58,CN,1701923520
530,port augusta,-32.5,137.7667,41.49,13,90,3.31,AU,1701923043
531,santiago,-33.4569,-70.6483,19.63,51,0,1.54,CL,1701923358
532,labasa,-16.4167,179.3833,28.04,74,100,2.45,FJ,1701923522
533,lata,40.1629,-8.3327,12.67,88,100,2.4,PT,1701923522
534,askoy,60.4092,5.226,2.08,75,40,3.6,NO,1701923523
535,galliano,29.4422,-90.2992,7.78,93,0,0.0,US,1701923039
536,djibo,14.1022,-1.6306,22.65,17,0,4.32,BF,1701923523
537,zaozersk,69.4005,32.4476,-18.6,99,77,2.93,RU,1701923523
538,porto novo,6.4965,2.6036,25.9,84,100,1.55,BJ,1701923524
539,new plymouth,-39.0667,174.0833,17.95,51,0,8.06,NZ,1701922990
540,napili-honokowai,20.9708,-156.6705,25.1,81,13,6.15,US,1701923525
541,nahiyat ash shinafiyah,31.5874,44.6602,19.02,36,55,1.1,IQ,1701923525
542,glace bay,46.1969,-59.957,-1.03,80,100,5.66,CA,1701922965
543,tadpatri,14.9167,78.0167,28.08,65,72,2.24,IN,1701923526
544,kembe,4.6228,21.8865,21.81,95,100,0.41,CF,1701923526
545,nabire,-3.3667,135.4833,28.37,80,87,1.56,ID,1701923527
546,vredendal,-31.6683,18.5012,18.74,74,0,2.44,ZA,1701923527
547,riyadh,24.6877,46.7219,10.08,18,3,2.66,SA,1701923345
548,roswell,34.0232,-84.3616,4.93,76,0,2.06,US,1701923528
549,laojunmiao,39.8333,97.7333,7.55,11,76,1.15,CN,1701923529
550,mermoz boabab,14.7065,-17.4758,23.88,94,0,3.09,SN,1701923529
551,belmonte,-15.8631,-38.8828,23.8,89,36,2.25,BR,1701923529
552,nalut,30.3333,10.85,10.8,45,30,3.44,LY,1701923046
553,barakani,-12.1356,44.4317,27.48,77,25,0.79,KM,1701923529
554,willis,30.4249,-95.4799,10.91,84,0,0.0,US,1701923529
555,port-vila,-17.7338,168.3219,25.78,94,100,4.63,VU,1701923530
556,westport,41.1415,-73.3579,1.57,65,0,2.57,US,1701923531
557,cooper's town,26.8667,-77.5167,20.01,59,79,10.84,BS,1701923531
558,amqui,48.4638,-67.4313,-11.14,98,73,1.53,CA,1701923532
559,klaksvik,62.2266,-6.589,4.51,74,35,12.33,FO,1701923532
560,chapada dos guimaraes,-15.4606,-55.7497,22.81,51,51,0.31,BR,1701923533
561,hajjah,15.6943,43.6058,16.25,47,18,0.86,YE,1701923533
562,al kharijah,25.4514,30.5464,14.05,59,0,2.77,EG,1701923534
563,musan-up,42.2261,129.2078,-0.86,39,0,6.85,KP,1701923534
564,mbanza kongo,-6.267,14.2401,19.01,98,75,1.24,AO,1701923534
565,merizo village,13.2658,144.6691,31.31,80,96,6.26,GU,1701923535
566,san rafael,-34.6177,-68.3301,19.97,35,0,2.49,AR,1701923535
567,kelso,46.1468,-122.9084,9.34,97,100,2.68,US,1701923536
568,mejit,10.2753,170.8646,27.58,82,79,10.76,MH,1701923536
569,xining,36.6167,101.7667,4.78,17,0,0.54,CN,1701923536
570,kiffa,16.6166,-11.4045,20.23,18,21,4.3,MR,1701923536
571,lagoa,39.05,-27.9833,16.92,66,41,9.51,PT,1701923537
572,berbera,10.4396,45.0143,25.49,65,10,2.73,SO,1701923537
573,puerto armuelles,8.2833,-82.8667,26.72,68,38,1.34,PA,1701922886
574,ixtapa,20.7,-105.2,26.24,78,75,1.54,MX,1701923538
575,port saint john's,-31.6229,29.5448,21.08,82,67,4.8,ZA,1701923539
576,marsh harbour,26.5412,-77.0636,20.72,57,98,10.18,BS,1701923014
577,axim,4.8699,-2.2405,25.73,83,41,2.07,GH,1701923540
578,san miguel de cauri,-10.1,-76.5833,7.87,92,100,1.42,PE,1701923541
579,cody,44.5263,-109.0565,7.12,39,0,3.6,US,1701923541
580,casablanca,33.5928,-7.6192,16.12,87,85,1.11,MA,1701923542
581,rameswaram,9.2833,79.3,28.11,77,73,3.25,IN,1701923543
582,villa riva,19.1807,-69.9132,22.05,97,3,1.19,DO,1701923544
583,mount gambier,-37.8333,140.7667,24.54,29,56,3.18,AU,1701923544
584,khanty-mansiysk,61.0042,69.0019,-34.94,68,0,1.0,RU,1701923545
585,tikapur,28.5,81.1333,23.33,36,0,1.11,NP,1701923545
586,mitu,1.1983,-70.1733,22.93,96,100,1.02,CO,1701923402
587,antofagasta,-23.65,-70.4,17.6,77,36,2.64,CL,1701922977
588,morro do chapeu,-11.55,-41.1561,15.07,98,14,2.82,BR,1701923546
589,ust'-kulom,61.6864,53.6902,-33.72,100,63,0.6,RU,1701923546
590,cortez,37.3489,-108.5859,-2.58,80,0,3.09,US,1701923548
591,saint-junien,45.8833,0.9,2.69,82,97,1.84,FR,1701923548
592,corner brook,48.9667,-57.9484,-7.91,97,85,0.39,CA,1701923550
593,kangding,30.0513,101.9603,13.2,23,10,0.87,CN,1701923551
594,nolinsk,57.5596,49.9363,-30.88,100,48,1.26,RU,1701923551
595,talara,-4.5772,-81.2719,20.45,85,58,6.22,PE,1701922975
596,belo sur tsiribihina,-19.7,44.55,30.4,57,27,2.13,MG,1701923552
597,banyuwangi,-8.2325,114.3576,33.3,52,33,3.7,ID,1701923552
598,mollendo,-17.0231,-72.0147,19.12,84,100,3.11,PE,1701923552
599,shimanovsk,52.0,127.7,-17.68,71,89,3.14,RU,1701923553
600,smithers,54.7804,-127.1743,-2.82,100,100,0.0,CA,1701923553
601,colesberg,-30.72,25.0972,18.8,69,46,5.69,ZA,1701923554
602,ciudad tula,23.0,-99.7167,13.93,97,100,0.68,MX,1701923554
603,fontanelas,38.8472,-9.4372,14.53,91,100,6.44,PT,1701923555
604,mikuni,36.2171,136.1519,10.95,50,99,12.24,JP,1701923556
605,kochubey,44.3861,46.5825,2.8,96,100,8.93,RU,1701923557
606,china,25.7,-99.2333,19.39,81,100,5.47,MX,1701923558
607,tahla,34.0485,-4.428,12.15,86,31,0.3,MA,1701923558
608,bowie,33.4501,-94.4335,7.04,80,31,2.4,US,1701923559
609,candido mendes,-1.4467,-45.7167,25.38,88,61,2.33,BR,1701923559
610,belem de sao francisco,-8.7539,-38.9658,23.19,76,3,6.33,BR,1701923559
611,paso de los libres,-29.7131,-57.0899,20.93,98,66,2.48,AR,1701923454
612,chadron,42.8294,-102.9999,-2.18,86,0,0.0,US,1701923561
613,aksu,41.1231,80.2644,6.14,30,64,0.53,CN,1701923561
614,tamandare,-8.7597,-35.1047,24.52,84,32,2.81,BR,1701923561
615,priargunsk,50.3691,119.1012,-22.95,90,44,1.24,RU,1701923561
616,papao,-17.75,-149.55,24.82,90,100,9.89,PF,1701923562
