City_ID,City,Lat,Lng,Max Temp,Humidity,Cloudiness,Wind Speed,Country,Date
0,port-aux-francais,-49.35,70.2167,3.61,78,62,10.28,TF,1702249718
1,saipan,15.1355,145.701,28.39,78,20,6.17,MP,1702249462
2,nemuro,43.3236,145.575,-1.38,52,18,4.26,JP,1702249719
3,ribeira grande,38.5167,-28.7,17.65,78,54,9.39,PT,1702249719
4,namibe,-15.1961,12.1522,22.53,76,82,2.27,AO,1702249719
5,papatowai,-46.5619,169.4708,15.7,44,31,4.3,NZ,1702249719
6,monahans,31.5943,-102.8926,14.38,21,3,4.59,US,1702249719
7,kuressaare,58.2481,22.5039,0.53,99,100,5.14,EE,1702249719
8,port mathurin,-19.6833,63.4167,26.07,77,62,3.66,MU,1702249720
9,grytviken,-54.2811,-36.5092,5.64,91,100,6.8,GS,1702249720
10,ilulissat,69.2167,-51.1,-1.99,74,100,6.69,GL,1702249720
11,isafjordur,66.0755,-23.124,-2.95,87,100,3.26,IS,1702249720
12,afaahiti,-17.75,-149.2833,29.93,83,89,11.06,PF,1702249720
13,tiksi,71.6872,128.8694,-24.83,100,100,2.18,RU,1702249720
14,albany,42.6001,-73.9662,10.2,91,100,2.24,US,1702249720
15,stanley,54.868,-1.6985,6.27,96,100,1.03,GB,1702249494
16,bethel,41.3712,-73.414,14.45,90,100,4.12,US,1702249623
17,radashkovichy,54.1551,27.2424,-2.05,94,100,5.58,BY,1702249721
18,peniche,39.3558,-9.3811,16.83,94,2,4.08,PT,1702249721
19,adamstown,-25.066,-130.1015,21.08,58,0,4.33,PN,1702249721
20,tralee,52.2704,-9.7026,9.48,88,67,6.69,IE,1702249721
21,palu,-0.8917,119.8707,25.83,87,100,0.69,ID,1702249722
22,ust-nera,64.5667,143.2,-19.56,98,100,4.13,RU,1702249722
23,piton saint-leu,-21.2196,55.3151,23.06,73,20,1.54,RE,1702249722
24,hawaiian paradise park,19.5933,-154.9731,26.13,92,100,3.09,US,1702249601
25,constantia,44.1833,28.65,0.39,85,49,4.06,RO,1702249722
26,whitehorse,60.7161,-135.0538,-14.55,81,88,1.34,CA,1702249722
27,calingasta,-31.3308,-69.4078,26.93,34,8,5.53,AR,1702249722
28,atafu village,-8.5421,-172.5159,29.16,75,94,6.96,TK,1702249722
29,the pas,53.8251,-101.2541,-10.83,95,65,2.85,CA,1702249723
30,san patricio,28.017,-97.5169,17.92,22,0,3.36,US,1702249723
31,williams lake,52.1415,-122.1445,1.76,94,100,1.54,CA,1702249723
32,kodiak,57.79,-152.4072,4.73,93,100,1.54,US,1702249723
33,sisimiut,66.9395,-53.6735,-3.62,89,100,5.72,GL,1702249723
34,bathurst,-33.4166,149.5806,28.87,56,70,0.89,AU,1702249692
35,chifeng,42.2683,118.9636,-13.32,86,100,2.49,CN,1702249724
36,waitangi,-43.9535,-176.5597,11.49,56,3,2.12,NZ,1702249724
37,sicuani,-14.2694,-71.2261,13.26,68,100,2.36,PE,1702249724
38,harper,4.375,-7.7169,26.72,82,22,3.13,LR,1702249724
39,port lincoln,-34.7333,135.8667,17.2,92,100,8.28,AU,1702249724
40,anadyr,64.75,177.4833,-26.67,75,20,5.0,RU,1702249724
41,puerto baquerizo moreno,-0.9,-89.6,24.09,84,29,4.74,EC,1702249724
42,edinburgh of the seven seas,-37.0676,-12.3116,13.67,69,96,6.5,SH,1702249724
43,sale,34.0389,-6.8166,20.97,94,0,0.0,MA,1702249725
44,inhambane,-23.865,35.3833,25.82,94,30,4.14,MZ,1702249725
45,iqaluit,63.7506,-68.5145,-5.15,79,100,5.14,CA,1702249725
46,kourou,5.1552,-52.6478,28.03,87,21,2.78,GF,1702249725
47,lihue,21.9789,-159.3672,26.87,75,20,4.12,US,1702249725
48,kailua-kona,19.6406,-155.9956,29.17,74,20,4.12,US,1702249725
49,vorgashor,67.5833,63.95,-24.83,100,100,3.21,RU,1702249725
50,sault ste. marie,46.5168,-84.3333,-0.84,80,100,4.12,CA,1702249726
51,arraial do cabo,-22.9661,-42.0278,23.29,76,100,4.55,BR,1702249726
52,lebu,-37.6167,-73.65,13.47,88,100,9.36,CL,1702249726
53,thompson,55.7435,-97.8558,-15.91,92,100,1.03,CA,1702249568
54,xining,36.6167,101.7667,-3.13,61,100,0.5,CN,1702249726
55,west island,-12.1568,96.8225,24.99,83,40,4.12,CC,1702249726
56,polyarnyy,69.1989,33.4478,-12.24,87,95,7.7,RU,1702249726
57,enewetak,11.3474,162.3373,27.7,76,86,8.0,MH,1702249726
58,rabaul,-4.1967,152.1721,26.33,81,100,2.67,PG,1702249727
59,buala,-8.145,159.5921,29.12,69,71,0.78,SB,1702249727
60,puerto ayora,-0.7393,-90.3518,24.86,80,28,3.87,EC,1702249727
61,carnarvon,-24.8667,113.6333,26.13,24,0,8.88,AU,1702249727
62,ust-tsilma,65.441,52.1498,-25.77,99,100,2.24,RU,1702249727
63,tual,-5.6667,132.75,28.96,75,91,5.99,ID,1702249727
64,port moresby,-9.4431,147.1797,28.11,69,99,2.36,PG,1702249727
65,la passe,45.5549,-0.8967,15.13,93,100,9.05,FR,1702249727
66,whangarei,-35.7317,174.3239,21.14,48,86,2.32,NZ,1702249728
67,priob'ye,62.5206,65.5964,-36.65,99,19,1.55,RU,1702249728
68,letlhakane,-21.4167,25.5833,18.71,89,100,4.64,BW,1702249728
69,khuzdar,27.7384,66.6434,11.18,22,0,3.0,PK,1702249728
70,mandalgovi,45.7625,106.2708,-16.3,94,100,2.32,MN,1702249728
71,puerto natales,-51.7236,-72.4875,12.25,50,75,6.69,CL,1702249728
72,kudahuvadhoo,2.6708,72.8944,28.14,75,100,3.29,MV,1702249728
73,nan,18.8333,100.6667,20.44,99,17,0.55,TH,1702249728
74,blackmans bay,-43.0167,147.3167,19.29,54,69,0.89,AU,1702249728
75,bumba,2.1833,22.4667,23.06,92,95,1.03,CD,1702249729
76,tolanaro,-25.0319,46.9987,23.71,95,59,4.25,MG,1702249729
77,sweetwater,25.7634,-80.3731,26.12,86,40,3.6,US,1702249729
78,ugoofaaru,5.6667,73.0,28.03,77,78,2.74,MV,1702249729
79,sakaiminato,35.55,133.2333,13.73,81,99,9.6,JP,1702249729
80,nushki,29.5542,66.0215,10.06,28,0,0.72,PK,1702249729
81,prado,-17.3411,-39.2208,24.62,84,7,2.11,BR,1702249703
82,fort bragg,35.139,-79.006,19.91,92,100,2.57,US,1702249679
83,fale old settlement,-9.3852,-171.2468,28.77,78,100,6.03,TK,1702249730
84,petropavlovsk-kamchatsky,53.0452,158.6483,1.33,95,100,6.71,RU,1702249730
85,tarauaca,-8.1614,-70.7656,25.41,87,86,1.11,BR,1702249730
86,geraldton,-28.7667,114.6,24.23,17,0,6.69,AU,1702249730
87,georgetown,5.4112,100.3354,26.96,83,20,3.09,MY,1702249711
88,schalksmuhle,51.2333,7.5333,9.78,92,100,1.34,DE,1702249730
89,bilibino,68.0546,166.4372,-26.14,98,43,1.95,RU,1702249730
90,la'ie,21.6477,-157.9253,28.98,73,22,1.79,US,1702249730
91,ujae,8.9322,165.7642,27.57,80,99,7.19,MH,1702249730
92,rabo de peixe,37.8,-25.5833,17.77,99,40,5.66,PT,1702249731
93,longboat key,27.4125,-82.659,20.01,66,100,1.54,US,1702249731
94,howard springs,-12.497,131.047,32.15,85,64,0.83,AU,1702249731
95,laguna,38.421,-121.4238,15.86,56,0,2.06,US,1702249731
96,khandyga,62.6667,135.6,-33.32,99,100,0.99,RU,1702249731
97,champerico,14.3,-91.9167,32.3,73,13,3.37,GT,1702249731
98,zelenoborskiy,66.845,32.3622,-14.16,96,100,2.36,RU,1702249731
99,raduzhny,62.0961,77.475,-34.93,99,8,1.49,RU,1702249731
100,port alfred,-33.5906,26.891,16.77,93,27,1.74,ZA,1702249732
101,sitka,57.0531,-135.33,3.94,81,75,2.06,US,1702249553
102,margaret river,-33.95,115.0667,15.88,49,0,5.46,AU,1702249732
103,invercargill,-46.4,168.35,15.88,48,51,6.42,NZ,1702249619
104,portland,45.5234,-122.6762,12.56,95,100,2.68,US,1702249555
105,port elizabeth,-33.918,25.5701,14.62,91,4,0.45,ZA,1702249721
106,yellowknife,62.456,-114.3525,-12.55,99,100,8.36,CA,1702249733
107,minas de marcona,-15.2119,-75.1103,17.23,71,80,5.8,PE,1702249733
108,humberto de campos,-2.5983,-43.4611,26.75,77,88,4.12,BR,1702249733
109,thurso,58.5927,-3.5259,6.14,82,100,9.61,GB,1702249733
110,broken hill,-31.95,141.4333,31.85,26,97,6.86,AU,1702249711
111,cuito,-12.3833,16.9333,16.38,95,100,0.91,AO,1702249733
112,grootfontein,-19.5667,18.1167,22.27,20,9,3.96,NA,1702249734
113,shimoda,34.6667,138.95,12.28,62,100,2.58,JP,1702249734
114,mount gambier,-37.8333,140.7667,15.8,87,100,5.58,AU,1702249734
115,wau,7.7029,27.9953,27.03,27,18,0.61,SS,1702249734
116,kokopo,-4.352,152.2633,25.72,84,100,1.86,PG,1702249734
117,maues,-3.3836,-57.7186,27.32,79,100,1.13,BR,1702249648
118,haiku-pauwela,20.9219,-156.3051,31.01,45,40,4.63,US,1702249734
119,mwingi,-0.9344,38.0601,20.28,76,95,0.88,KE,1702249734
120,puerto aysen,-45.4,-72.7,12.36,99,100,2.23,CL,1702249735
121,wailua homesteads,22.0669,-159.378,26.53,76,20,4.12,US,1702249735
122,luderitz,-26.6481,15.1594,17.69,67,1,8.84,NA,1702249735
123,cabo san lucas,22.8909,-109.9124,28.67,50,0,5.66,MX,1702249558
124,las khorey,11.1595,48.1967,24.78,74,11,3.04,SO,1702249735
125,ntoum,0.3833,9.7833,26.87,92,100,1.27,GA,1702249735
126,san luis de la loma,17.2706,-100.8939,27.7,72,100,2.59,MX,1702249735
127,novo aripuana,-5.1206,-60.3797,27.06,75,98,1.17,BR,1702249735
128,madalena,41.2162,-8.3345,16.32,92,98,1.98,PT,1702249735
129,nikolayevsk-on-amure,53.1406,140.73,-21.2,84,100,5.41,RU,1702249736
130,turkmenbasy,40.0222,52.9552,10.43,76,100,9.77,TM,1702249736
131,labasa,-16.4167,179.3833,29.08,46,50,3.05,FJ,1702249736
132,yigo village,13.5361,144.8886,28.62,76,75,6.17,GU,1702249736
133,klyuchi,52.2667,79.1667,-21.46,87,21,2.51,RU,1702249736
134,yamoussoukro,6.8206,-5.2767,24.64,69,77,1.65,CI,1702249736
135,east london,-33.0153,27.9116,16.73,78,92,2.38,ZA,1702249576
136,remire-montjoly,4.9167,-52.2667,28.02,78,20,1.03,GF,1702249736
137,pandan,14.0453,124.1694,27.22,82,81,4.08,PH,1702249737
138,antsiranana,-12.2787,49.2917,25.41,85,78,5.13,MG,1702249737
139,haraiya,26.8,82.4667,12.9,38,0,1.98,IN,1702249737
140,marly,50.3456,3.5496,12.01,91,65,8.24,FR,1702249737
141,hadibu,12.65,54.0333,24.54,71,38,4.97,YE,1702249737
142,papao,-17.75,-149.55,30.82,83,64,12.44,PF,1702249737
143,nar'yan-mar,67.6713,53.087,-22.72,91,99,4.92,RU,1702249737
144,mora,11.0461,14.1401,19.66,31,2,2.1,CM,1702249737
145,goya,-29.14,-59.2626,22.11,69,0,2.68,AR,1702249738
146,portage la prairie,49.9728,-98.2926,-7.72,70,47,2.42,CA,1702249637
147,xique xique,-10.8217,-42.7311,29.38,51,39,1.21,BR,1702249577
148,al jahra',29.3375,47.6581,20.75,36,100,3.5,KW,1702249738
149,hamilton,39.1834,-84.5333,2.45,81,100,6.71,US,1702249668
150,strezhevoy,60.7333,77.5889,-31.69,99,7,2.24,RU,1702249738
151,ushuaia,-54.8,-68.3,5.42,90,93,1.82,AR,1702249738
152,longyearbyen,78.2186,15.6401,0.91,69,75,6.17,SJ,1702249738
153,bayanaul,50.7889,75.6956,-23.99,95,39,2.11,KZ,1702249738
154,darwin,-12.4611,130.8418,32.19,78,75,0.51,AU,1702249738
155,funadhoo,6.15,73.2667,28.17,78,72,4.13,MV,1702249739
156,sarakhs,36.5449,61.1577,11.09,41,17,1.31,IR,1702249739
157,moncks corner,33.196,-80.0131,20.64,81,75,4.63,US,1702249739
158,udachny,66.4167,112.4,-28.64,82,100,5.53,RU,1702249739
159,mount isa,-20.7333,139.5,24.87,50,78,7.72,AU,1702249739
160,happy valley-goose bay,53.3168,-60.3315,3.77,84,100,7.43,CA,1702249739
161,opuwo,-18.0607,13.84,21.93,37,6,2.09,NA,1702249739
162,steinkjer,64.193,11.3851,-6.48,95,49,1.21,NO,1702249739
163,santa lucia cotzumalguapa,14.3333,-91.0167,27.07,73,7,1.22,GT,1702249740
164,kenai,60.5544,-151.2583,-5.48,92,100,15.43,US,1702249740
165,vodnyy,63.5046,53.4095,-30.88,99,100,1.86,RU,1702249740
166,kavaratti,10.5669,72.642,28.7,72,87,1.29,IN,1702249740
167,bredasdorp,-34.5322,20.0403,15.81,80,0,2.23,ZA,1702249740
168,daru,-9.0763,143.2092,25.91,85,100,1.53,PG,1702249740
169,avella,40.9589,14.6005,11.73,83,28,2.26,IT,1702249740
170,guatire,10.4762,-66.5427,22.57,96,38,1.05,VE,1702249740
171,muslyumovo,55.3033,53.1947,-26.33,99,100,1.42,RU,1702249741
172,guerrero negro,27.9769,-114.0611,23.74,23,0,2.22,MX,1702249741
173,avarua,-21.2078,-159.775,25.03,94,100,11.32,CK,1702249741
174,turtas,58.9417,69.1325,-29.6,95,11,2.59,RU,1702249741
175,saint-philippe,-21.3585,55.7679,24.77,85,81,5.21,RE,1702249741
176,cadale,2.7603,46.3222,27.39,79,24,5.89,SO,1702249742
177,binhe,32.6883,112.8275,0.03,86,99,7.45,CN,1702249742
178,kamyzyak,46.11,48.0736,-4.99,62,40,7.0,RU,1702249742
179,wenshui,28.4506,106.5267,10.71,94,100,1.08,CN,1702249742
180,kralendijk,12.15,-68.2667,25.99,89,40,5.66,BQ,1702249742
181,kongsvinger,60.1905,11.9977,-2.53,95,100,2.67,NO,1702249742
182,sao tome,0.3365,6.7273,26.52,85,97,1.66,ST,1702249743
183,oum hadjer,13.2954,19.6966,20.85,20,45,4.14,TD,1702249743
184,brazzaville,-4.2658,15.2832,24.2,94,20,1.03,CG,1702249743
185,samarinda,-0.5,117.15,23.45,98,100,0.84,ID,1702249743
186,galliano,29.4422,-90.2992,14.44,41,0,3.09,US,1702249743
187,magadan,59.5667,150.8,-5.67,81,92,8.13,RU,1702249743
188,heringen,50.888,10.0072,8.0,87,100,8.98,DE,1702249744
189,pathein,16.7833,94.7333,23.06,81,23,2.54,MM,1702249744
190,takoradi,4.8845,-1.7554,26.91,82,92,4.0,GH,1702249744
191,taupo,-38.6833,176.0833,15.86,62,97,2.31,NZ,1702249744
192,bandarbeyla,9.4942,50.8122,25.21,75,27,9.15,SO,1702249745
193,peruibe,-24.32,-46.9983,22.22,92,100,5.42,BR,1702249724
194,chonchi,-42.6128,-73.8092,17.56,71,96,1.57,CL,1702249745
195,ochobo,7.183,7.9769,26.11,35,9,1.07,NG,1702249745
196,les anglais,18.3054,-74.2197,26.64,80,40,3.86,HT,1702249745
197,pisco,-13.7,-76.2167,22.03,73,0,5.14,PE,1702249745
198,casablanca,33.5928,-7.6192,18.01,88,0,1.79,MA,1702249527
199,olonkinbyen,70.9221,-8.7187,-4.63,58,57,3.23,SJ,1702249746
200,neiafu,-18.65,-173.9833,29.38,61,20,3.6,TO,1702249746
201,new norfolk,-42.7826,147.0587,19.95,37,86,0.94,AU,1702249746
202,st. john's,47.5649,-52.7093,-0.68,90,40,1.34,CA,1702249691
203,utrik,11.2278,169.8474,27.32,77,63,9.53,MH,1702249746
204,parsabad,39.6482,47.9174,11.33,58,3,2.09,IR,1702249746
205,manta,-0.95,-80.7333,25.97,75,45,5.32,EC,1702249746
206,olyokminsk,60.3736,120.4264,-27.04,90,100,3.16,RU,1702249747
207,tweed heads,-28.1817,153.547,28.31,59,75,4.63,AU,1702249747
208,tura,25.5198,90.2201,13.81,56,0,1.75,IN,1702249747
209,hargeysa,9.56,44.065,14.57,86,4,3.96,SO,1702249747
210,khilchipur,24.0333,76.5667,15.83,53,0,2.32,IN,1702249580
211,kruisfontein,-34.0033,24.7314,13.27,92,3,0.89,ZA,1702249747
212,tindouf,27.6711,-8.1474,17.31,27,96,4.4,DZ,1702249747
213,fauske,67.2588,15.3918,-2.98,82,95,4.02,NO,1702249748
214,akureyri,65.6835,-18.0878,-8.49,80,50,2.51,IS,1702249748
215,buzuluk,52.7807,52.2635,-16.69,92,25,1.79,RU,1702249748
216,gretna,29.9147,-90.054,14.44,47,20,9.77,US,1702249748
217,phalodi,27.1333,72.3667,16.46,26,7,0.51,IN,1702249748
218,weining,26.85,104.2333,5.22,92,37,1.63,CN,1702249748
219,kathor,21.3,72.9333,20.7,52,2,2.92,IN,1702249749
220,barra,-11.0894,-43.1417,28.03,52,57,1.4,BR,1702249749
221,jamestown,42.097,-79.2353,4.77,79,100,3.09,US,1702249749
222,carlos chagas,-17.7031,-40.7664,23.65,80,61,5.57,BR,1702249749
223,ilam,26.9167,87.9167,10.37,80,25,2.16,NP,1702249749
224,selkirk,50.1436,-96.8845,-7.92,96,34,2.09,CA,1702249749
225,'ain deheb,34.8422,1.547,10.85,61,7,3.38,DZ,1702249750
226,linda,39.1277,-121.5508,18.23,52,0,0.0,US,1702249566
227,suva,-18.1416,178.4415,26.71,57,40,4.63,FJ,1702249750
228,medina,24.4686,39.6142,21.24,17,0,3.6,SA,1702249750
229,kolonia town,6.964,158.206,30.06,70,100,2.57,FM,1702249750
230,la ronge,55.1001,-105.2842,-4.5,76,92,4.14,CA,1702249750
231,sinjai,-5.1241,120.253,26.14,80,100,1.3,ID,1702249750
232,crane,31.3974,-102.3501,11.83,20,2,4.06,US,1702249751
233,crookston,47.7741,-96.6081,-5.51,100,100,3.09,US,1702249751
234,tobruk,32.0836,23.9764,15.15,64,91,5.94,LY,1702249751
235,alice springs,-23.7,133.8833,14.75,55,75,7.72,AU,1702249751
236,broome,42.2506,-75.833,6.67,96,100,4.12,US,1702249751
237,hermanus,-34.4187,19.2345,16.55,80,0,4.06,ZA,1702249751
238,arno,60.1167,18.6333,0.44,85,100,5.73,SE,1702249752
239,cromer,52.9312,1.2989,9.82,81,52,10.73,GB,1702249752
240,sinop,41.7711,34.8709,6.22,81,87,3.08,TR,1702249752
241,tsiombe,-25.3,45.4833,23.94,92,48,1.02,MG,1702249752
242,qaqortoq,60.7167,-46.0333,-9.61,75,79,2.34,GL,1702249752
243,konarka,19.9,86.1167,16.22,61,0,2.63,IN,1702249752
244,taybad,34.74,60.7756,10.51,41,0,2.23,IR,1702249752
245,chernomorskoye,45.5039,32.6997,6.67,87,100,1.42,UA,1702249753
246,abong mbang,3.9833,13.1833,21.86,82,100,0.64,CM,1702249753
247,kitimat,54.0524,-128.6534,2.05,31,100,0.45,CA,1702249753
248,balatonfured,46.9619,17.8719,1.57,94,35,2.63,HU,1702249753
249,igbeti,8.75,4.1333,24.84,18,6,1.39,NG,1702249753
250,mejit,10.2753,170.8646,27.51,74,97,9.51,MH,1702249754
251,quiberon,47.4841,-3.1196,14.55,93,100,3.13,FR,1702249754
252,biltine,14.5333,20.9167,20.08,18,76,2.26,TD,1702249754
253,ondjiva,-17.0667,15.7333,24.86,30,40,3.02,AO,1702249754
254,vrnograc,45.1636,15.9536,1.38,88,4,2.14,BA,1702249755
255,marquette,46.5333,-87.6335,-3.15,83,89,2.68,US,1702249755
256,dhidhdhoo,6.8833,73.1,28.45,78,96,5.2,MV,1702249755
257,nova sintra,14.8667,-24.7167,23.03,74,100,3.55,CV,1702249755
258,kingston,17.997,-76.7936,28.53,75,20,9.26,JM,1702249633
259,tazovsky,67.4667,78.7,-26.09,96,100,4.89,RU,1702249755
260,freetown,8.484,-13.2299,26.68,77,83,3.0,SL,1702249756
261,sinabang,2.4803,96.3801,25.26,89,100,1.12,ID,1702249756
262,hirara,24.8,125.2833,24.21,77,36,4.88,JP,1702249756
263,kikwit,-5.041,18.8162,21.45,96,100,0.58,CD,1702249756
264,yunyang,33.4474,112.7142,-1.16,92,97,5.25,CN,1702249757
265,darhan,49.4867,105.9228,-26.04,97,100,0.39,MN,1702249757
266,zuunmod,47.7069,106.9528,-22.43,99,100,1.56,MN,1702249757
267,aflou,34.1128,2.1023,9.47,47,12,2.54,DZ,1702249757
268,ocean shores,46.9737,-124.1563,11.08,98,100,3.09,US,1702249757
269,talnakh,69.4865,88.3972,-26.0,99,100,4.17,RU,1702249758
270,mar del plata,-38.0023,-57.5575,21.02,89,2,0.45,AR,1702249649
271,castillos,-34.1667,-53.8333,16.37,93,10,3.04,UY,1702249758
272,northam,51.0333,-4.2167,12.03,84,46,14.11,GB,1702249759
273,kupang,-10.1667,123.5833,26.32,100,75,1.03,ID,1702249759
274,isangel,-19.55,169.2667,26.33,57,100,5.47,VU,1702249759
275,oamaru,-45.0784,170.9801,16.39,59,7,3.09,NZ,1702249759
276,kurchum,48.5722,83.6542,-14.71,86,94,1.98,KZ,1702249759
277,golyshmanovo,56.3979,68.3728,-32.14,99,98,3.81,RU,1702249759
278,sandnessjoen,66.0217,12.6316,0.06,59,40,0.51,NO,1702249760
279,flying fish cove,-10.4217,105.6791,24.82,88,75,3.09,CX,1702249760
280,amboise,47.4125,0.9827,13.48,92,100,5.66,FR,1702249760
281,atherton,53.5237,-2.4935,10.14,95,100,2.24,GB,1702249760
282,effium,6.6292,8.0593,27.04,44,8,1.39,NG,1702249760
283,sur,22.5667,59.5289,22.3,54,6,0.96,OM,1702249622
284,shijiazhuang,38.0414,114.4786,-3.46,93,100,1.0,CN,1702249761
285,college,64.8569,-147.8028,-24.75,69,75,1.54,US,1702249761
286,toliara,-23.35,43.6667,25.19,75,4,2.54,MG,1702249761
287,dien bien phu,21.3833,103.0167,19.12,99,41,0.44,VN,1702249761
288,sarupathar,26.1984,93.8094,15.13,97,2,0.34,IN,1702249638
289,kyshtovka,56.555,76.6271,-29.81,97,89,2.68,RU,1702249761
290,tumayr,25.7039,45.868,17.46,23,100,1.98,SA,1702249761
291,santa ana de yacuma,-13.75,-65.4333,28.39,69,80,3.01,BO,1702249762
292,sidney,-33.8679,151.2073,27.95,72,40,2.57,AU,1702249466
293,ewo,-0.8725,14.8206,24.25,87,100,0.97,CG,1702249762
294,srivardhan,18.0333,73.0167,23.71,69,69,2.27,IN,1702249762
295,sydney mines,46.2367,-60.2177,6.01,80,75,4.12,CA,1702249598
296,lakatoro,-16.0999,167.4164,26.99,61,100,6.88,VU,1702249762
297,moissala,8.3404,17.7663,23.16,23,45,2.16,TD,1702249758
298,ola,59.5833,151.2833,-5.5,79,100,8.64,RU,1702249762
299,ji'an,27.1172,114.9793,17.74,94,99,2.36,CN,1702249763
300,caleta de carquin,-11.0925,-77.6267,20.77,81,45,4.62,PE,1702249763
301,vila franca do campo,37.7167,-25.4333,18.27,99,100,3.82,PT,1702249763
302,ballina,-28.8667,153.5667,26.55,54,82,4.13,AU,1702249763
303,yambio,4.5721,28.3955,21.39,71,21,1.94,SS,1702249763
304,chegdomyn,51.1167,133.0167,-30.0,97,74,0.98,RU,1702249764
305,coaldale,49.7167,-112.6185,2.19,69,0,6.56,CA,1702249764
306,severo-yeniseyskiy,60.3725,93.0408,-38.57,100,74,0.45,RU,1702249764
307,badger,64.8,-147.5333,-24.8,69,75,1.54,US,1702249764
308,karratha,-20.7377,116.8463,26.29,19,8,10.02,AU,1702249764
309,port blair,11.6667,92.75,25.02,94,20,1.03,IN,1702249764
310,east ballina,-28.8667,153.5833,26.56,55,82,4.23,AU,1702249765
311,sao joao da barra,-21.6403,-41.0511,23.05,80,41,2.64,BR,1702249765
312,kristiansund,63.1115,7.732,1.36,75,75,2.57,NO,1702249765
313,praia da vitoria,38.7333,-27.0667,17.64,83,100,5.34,PT,1702249765
314,queenstown,-31.8976,26.8753,11.28,91,100,1.16,ZA,1702249765
315,plettenberg bay,-34.0527,23.3716,15.17,88,4,1.12,ZA,1702249765
316,cedeira,43.6797,-8.0209,17.43,75,100,10.96,ES,1702249765
317,igarka,67.4667,86.5833,-30.35,97,100,2.24,RU,1702249766
318,figuig (centre),32.1089,-1.2286,12.68,54,2,1.28,MA,1702249766
319,okha,53.5739,142.9478,-19.72,87,100,10.99,RU,1702249766
320,zouerate,22.7187,-12.4521,19.84,22,65,4.31,MR,1702249766
321,lib,8.3122,167.3766,27.31,83,34,6.98,MH,1702249766
322,vadso,70.0744,29.7487,-10.91,85,75,9.77,NO,1702249766
323,borogontsy,62.6683,131.1683,-31.56,94,100,3.47,RU,1702249767
324,quellon,-43.1167,-73.6167,14.01,81,100,2.89,CL,1702249767
325,ixtapa,20.7,-105.2,26.79,74,75,3.6,MX,1702249767
326,yulinshi,38.2906,109.7494,-2.5,90,83,2.71,CN,1702249767
327,san antonio de pale,-1.4014,5.6325,27.41,79,99,5.28,GQ,1702249767
328,faya-largeau,17.9257,19.1043,20.46,31,1,8.41,TD,1702249768
329,conde,-7.2597,-34.9075,26.7,78,0,2.57,BR,1702249768
330,mbalmayo,3.5167,11.5,23.18,94,98,1.39,CM,1702249768
331,kanye,-24.9667,25.3327,17.63,81,100,4.99,BW,1702249768
332,bardai,11.65,7.2333,18.85,26,39,4.52,NG,1702249768
333,moberly,39.4184,-92.4382,3.01,59,0,0.45,US,1702249769
334,yuzhno-kurilsk,44.0306,145.8556,0.76,76,99,5.39,RU,1702249769
335,bastia,42.6667,9.3333,16.28,63,0,5.36,FR,1702249769
336,traverse city,44.7631,-85.6206,1.04,87,100,4.12,US,1702249671
337,tulun,54.5611,100.5792,-37.49,100,52,0.53,RU,1702249770
338,villa zempoala,19.45,-96.4167,20.51,57,100,8.74,MX,1702249770
339,yaren,-0.5472,166.916,28.38,73,26,1.15,NR,1702249770
340,pokrovsk,48.282,37.1758,-0.37,88,100,4.89,UA,1702249770
341,san luis,-33.295,-66.3356,28.69,20,2,5.97,AR,1702249671
342,menongue,-14.6585,17.691,19.79,78,100,1.42,AO,1702249770
343,saldanha,-33.0117,17.9442,16.91,87,0,8.46,ZA,1702249770
344,boone,39.0334,-92.3335,5.14,55,5,2.26,US,1702249737
345,rio grande,-32.035,-52.0986,21.06,88,91,7.6,BR,1702249771
346,mawu,29.5923,107.3139,13.18,96,100,1.06,CN,1702249771
347,karagandy,49.8019,73.1021,-28.03,90,9,3.4,KZ,1702249771
348,kuanda,56.3161,116.0806,-36.71,96,66,0.3,RU,1702249771
349,codrington,-38.2667,141.9667,16.52,79,100,7.84,AU,1702249771
350,la huacana,18.9667,-101.8167,27.98,51,100,1.22,MX,1702249771
351,luganville,-15.5333,167.1667,26.51,70,100,5.3,VU,1702249771
352,island harbour,50.724,-1.2758,12.74,84,3,5.81,GB,1702249772
353,marsh harbour,26.5412,-77.0636,24.72,83,48,9.37,BS,1702249772
354,gadzhiyevo,69.2551,33.3362,-13.02,88,94,7.39,RU,1702249772
355,ulsteinvik,62.3432,5.8487,3.07,87,42,2.24,NO,1702249772
356,makubetsu,45.3714,141.8211,-6.77,72,100,7.15,JP,1702249772
357,la libertad,-2.2333,-80.9,25.81,83,40,5.14,EC,1702249772
358,mil'kovo,55.6078,37.7956,-8.7,94,100,4.82,RU,1702249773
359,phan rang-thap cham,11.5667,108.9833,21.4,90,52,2.66,VN,1702249773
360,colonia,50.9333,6.95,11.7,78,75,8.23,DE,1702249773
361,malanje,-9.5402,16.341,17.9,98,100,1.55,AO,1702249773
362,sogamoso,5.7143,-72.9339,13.3,89,77,2.09,CO,1702249773
363,khonsa,27.0167,95.5667,11.03,93,1,1.56,IN,1702249773
364,tocopilla,-22.092,-70.1979,20.39,62,76,0.97,CL,1702249774
365,prince rupert,54.3161,-130.3201,6.05,75,40,4.63,CA,1702249700
366,soure,-0.7167,-48.5233,27.38,79,69,5.86,BR,1702249774
367,yarmouth,41.7057,-70.2286,15.36,96,100,5.66,US,1702249760
368,odienne,9.51,-7.5692,23.84,22,85,0.86,CI,1702249774
369,soio,-6.1349,12.3689,27.07,77,99,3.87,AO,1702249774
370,san pedro,14.35,121.0167,26.84,84,20,2.06,PH,1702249774
371,fisterra,42.9049,-9.2629,18.19,86,100,10.64,ES,1702249774
372,namdrik,5.5994,168.1028,27.72,82,34,5.41,MH,1702249775
373,calvinia,-31.4707,19.776,16.79,33,0,3.62,ZA,1702249775
374,hilo,19.7297,-155.09,26.25,93,100,3.09,US,1702249556
375,kerikeri,-35.2268,173.9474,22.17,75,85,0.89,NZ,1702249775
376,selibaby,15.159,-12.1829,25.52,16,5,4.81,MR,1702249775
377,khanty-mansiysk,61.0042,69.0019,-40.94,66,20,1.0,RU,1702249775
378,hithadhoo,-0.6,73.0833,27.66,75,99,2.34,MV,1702249776
379,mount pearl,47.5166,-52.7813,-1.14,90,45,1.96,CA,1702249776
380,porto murtinho,-21.6989,-57.8825,23.39,95,100,1.54,BR,1702249777
381,xinyuan,37.3,99.0,-9.89,61,92,2.04,CN,1702249777
382,grand gaube,-20.0064,57.6608,25.77,83,94,0.89,MU,1702249777
383,leava,-14.3,-178.1667,27.95,74,72,8.04,WF,1702249777
384,itaituba,-4.2761,-55.9836,23.57,94,100,0.36,BR,1702249777
385,taoudenni,22.6783,-3.9836,18.75,23,100,7.95,ML,1702249777
386,freeport,40.6576,-73.5832,15.63,92,100,11.83,US,1702249774
387,jiuquan,39.7432,98.5174,-2.32,40,100,3.52,CN,1702249778
388,vilhena,-12.7406,-60.1458,21.08,87,100,1.44,BR,1702249731
389,saudarkrokur,65.7461,-19.6394,-5.75,86,61,4.77,IS,1702249778
390,mana,5.6592,-53.7767,25.77,89,36,3.7,GF,1702249778
391,brattleboro,42.8509,-72.5579,14.61,94,100,0.89,US,1702249778
392,macclenny,30.2822,-82.1221,18.12,97,100,0.45,US,1702249622
393,hammerfest,70.6634,23.6821,-4.75,68,75,3.6,NO,1702249778
394,campoverde,-8.4753,-74.8058,29.83,70,96,1.23,PE,1702249778
395,vilkaviskis,54.6517,23.0322,-1.43,95,100,5.46,LT,1702249779
396,naze,28.3667,129.4833,21.27,83,52,6.86,JP,1702249779
397,luanda,-8.8368,13.2343,26.68,83,99,5.23,AO,1702249710
398,saint-pierre,-21.3393,55.4781,24.82,73,20,1.54,RE,1702249779
399,altpinar,39.2042,32.7478,4.07,85,39,1.96,TR,1702249779
400,punta arenas,-53.15,-70.9167,9.06,57,20,4.63,CL,1702249779
401,newman,37.3138,-121.0208,17.13,53,100,1.79,US,1702249779
402,tanjung pinang,0.9167,104.45,26.4,84,87,3.01,ID,1702249780
403,dom pedrito,-30.9828,-54.6731,19.84,84,1,4.93,BR,1702249780
404,vila velha,-20.3297,-40.2925,24.97,82,75,2.57,BR,1702249780
405,kiunga,-6.1219,141.2906,23.05,98,100,1.05,PG,1702249780
406,bagua grande,-5.7561,-78.4411,29.38,66,37,1.87,PE,1702249780
407,sheoganj,25.15,73.0667,15.11,38,0,1.04,IN,1702249780
408,djamaa,33.5339,5.9931,15.14,39,1,4.24,DZ,1702249780
409,jayapura,-2.5333,140.7,28.66,81,94,1.88,ID,1702249781
410,salym,60.0625,71.4789,-31.65,98,9,2.03,RU,1702249781
411,lagoa,39.05,-27.9833,16.47,76,88,11.36,PT,1702249781
412,tofol,5.3248,163.0078,28.88,74,75,4.12,FM,1702249781
413,sao vicente,-23.9631,-46.3919,24.59,49,100,3.58,BR,1702249781
414,pueblo,38.2545,-104.6091,14.42,38,0,3.09,US,1702249488
415,cu chi,10.9667,106.4667,25.01,85,100,2.36,VN,1702249782
416,bamusso,4.4591,8.9027,26.56,82,88,1.27,CM,1702249521
417,howrah,22.5892,88.3103,16.0,88,0,0.0,IN,1702249782
418,as samawah,31.332,45.2944,19.76,41,100,2.78,IQ,1702249782
419,puerto vallarta,20.6204,-105.2307,27.17,80,75,3.6,MX,1702249780
420,prosser,46.2068,-119.7689,7.05,86,81,0.52,US,1702249782
421,ometepec,16.6833,-98.4167,28.88,57,85,2.6,MX,1702249782
422,zheshart,62.0731,49.5733,-22.0,95,100,2.97,RU,1702249783
423,rikaze,29.25,88.8833,-2.63,40,0,2.0,CN,1702249783
424,tagbilaran city,9.65,123.85,26.56,83,88,5.07,PH,1702249783
425,fort st. john,56.2499,-120.8529,-3.42,77,98,1.65,CA,1702249661
426,tomakomai,42.6369,141.6033,-2.68,68,75,1.54,JP,1702249650
427,ancud,-41.8697,-73.8203,14.3,78,94,3.42,CL,1702249784
428,sokhumi,43.0033,41.0153,10.59,80,73,0.71,GE,1702249784
429,ende,-8.8432,121.6623,27.86,79,74,2.17,ID,1702249784
430,rongelap,11.1635,166.8941,27.38,78,99,9.32,MH,1702249784
431,koutiala,12.3917,-5.4642,24.98,11,29,3.66,ML,1702249749
432,lorengau,-2.0226,147.2712,28.09,82,99,6.21,PG,1702249784
433,kapa'a,22.0752,-159.319,27.28,75,20,4.12,US,1702249784
434,weno,7.4515,151.8468,28.97,79,100,3.6,FM,1702249785
435,qashar,53.3906,62.9297,-27.12,95,91,4.86,KZ,1702249785
436,shingu,33.7333,135.9833,14.13,74,93,1.78,JP,1702249785
437,susuman,62.7833,148.1667,-22.23,99,96,2.68,RU,1702249785
438,iskateley,67.6803,53.1512,-22.77,91,99,4.92,RU,1702249785
439,weiser,44.251,-116.9693,4.37,87,100,0.45,US,1702249785
440,colipapa,9.4726,122.5616,25.93,83,96,2.59,PH,1702249785
441,cuamba,-14.8031,36.5372,24.25,67,64,2.02,MZ,1702249786
442,lerwick,60.1545,-1.1494,7.0,71,100,7.48,GB,1702249786
443,leh,34.1667,77.5833,-9.3,38,83,1.69,IN,1702249786
444,chachapoyas,-6.2317,-77.869,15.2,94,80,1.36,PE,1702249786
445,bari sadri,24.4167,74.4667,15.02,57,0,1.26,IN,1702249786
446,caiaponia,-16.9567,-51.8103,24.74,65,94,1.59,BR,1702249786
447,mahavelona,-17.6848,49.5087,22.99,93,12,1.56,MG,1702249786
448,pangai,-19.8,-174.35,25.88,64,16,6.34,TO,1702249787
449,cooper's town,26.8667,-77.5167,24.77,85,36,9.44,BS,1702249787
450,midvagur,62.0511,-7.1939,7.46,87,100,4.12,FO,1702249787
451,barlinek,52.9946,15.2186,5.04,91,100,5.1,PL,1702249787
452,cadillac,44.2519,-85.4012,-1.23,93,100,3.09,US,1702249787
453,amga,60.8953,131.9608,-27.6,91,100,3.93,RU,1702249787
454,juneau,58.3019,-134.4197,1.0,95,100,3.09,US,1702249562
455,manggar,-2.8833,108.2667,25.95,84,79,0.98,ID,1702249788
456,tangalle,6.024,80.7911,24.19,92,100,1.73,LK,1702249788
457,gizo,-8.103,156.8419,28.23,70,80,1.89,SB,1702249788
458,kebili,33.7044,8.969,13.05,50,0,4.3,TN,1702249788
459,osmaneli,40.3572,30.0142,5.79,78,95,0.96,TR,1702249788
460,lansing,42.7325,-84.5555,2.21,83,100,4.63,US,1702249788
461,paita,-5.0892,-81.1144,22.23,76,7,7.4,PE,1702249788
462,vernon,50.2581,-119.2691,4.78,86,100,0.51,CA,1702249789
463,san juan,-31.5375,-68.5364,31.75,22,24,11.8,AR,1702249789
464,ust'-ilimsk,58.0006,102.6619,-35.31,100,33,0.45,RU,1702249789
465,zyryanskoye,56.8306,86.6258,-31.12,98,28,2.86,RU,1702249789
466,sola,-13.8833,167.55,26.4,77,100,9.49,VU,1702249789
467,san-pedro,4.7485,-6.6363,26.61,82,17,2.95,CI,1702249789
468,callao,-12.0667,-77.15,21.16,73,75,5.66,PE,1702249553
469,cantley,53.5,-1.05,10.42,89,88,7.73,GB,1702249790
470,chivacoa,10.1603,-68.895,23.46,95,33,2.35,VE,1702249790
471,koryazhma,61.3143,47.1691,-20.61,86,100,4.08,RU,1702249790
472,urangan,-25.3,152.9,24.94,66,73,7.97,AU,1702249790
473,nuku'alofa,-21.1333,-175.2,28.19,61,40,3.6,TO,1702249790
474,as sulayyil,20.4607,45.5779,14.14,27,61,2.24,SA,1702249790
475,alagapuram,11.8871,78.9176,22.47,94,83,2.2,IN,1702249790
476,kapuskasing,49.4169,-82.4331,-7.9,89,100,3.26,CA,1702249791
477,de aar,-30.6497,24.0123,13.13,68,3,8.11,ZA,1702249791
478,kirkland lake,48.1446,-80.0377,-3.99,85,100,3.3,CA,1702249791
479,shiyan,32.6475,110.7781,3.06,96,100,1.16,CN,1702249791
480,lazaro cardenas,17.9583,-102.2,27.91,66,100,1.53,MX,1702249791
481,coahuayana de hidalgo,18.7,-103.6583,28.07,65,100,0.44,MX,1702249791
482,benghazi,32.1167,20.0667,17.83,69,50,7.3,LY,1702249791
483,lianzhou,24.7811,112.3825,20.85,95,87,1.24,CN,1702249792
484,bahia honda,22.9036,-83.1592,25.49,76,49,0.8,CU,1702249792
485,tucuma,-0.1833,-50.05,26.51,82,40,4.05,BR,1702249792
486,tamandare,-8.7597,-35.1047,25.95,75,49,4.17,BR,1702249792
487,sunne,59.8376,13.143,-0.82,95,100,3.8,SE,1702249792
488,bonthe,7.5264,-12.505,26.86,80,48,3.12,SL,1702249793
489,lompoc,34.6391,-120.4579,22.1,54,0,2.57,US,1702249793
490,touros,-5.1989,-35.4608,26.32,70,43,5.32,BR,1702249653
491,krasnovishersk,60.4078,57.082,-31.14,99,19,0.91,RU,1702249793
492,bichura,50.5881,107.6022,-26.89,97,20,0.66,RU,1702249793
493,ta`u,-14.2336,-169.5144,25.06,92,100,8.5,AS,1702249794
494,phek,25.6667,94.5,5.22,99,28,0.62,IN,1702249794
495,dryden,49.7833,-92.7503,-5.84,86,100,2.57,CA,1702249663
496,maua,-23.6678,-46.4614,20.56,90,100,1.9,BR,1702249794
497,la tuque,47.4334,-72.7824,1.85,100,100,1.65,CA,1702249685
498,taseyevo,57.2169,94.8978,-33.14,100,20,0.45,RU,1702249794
499,nishinoomote,30.7333,131.0,19.55,85,100,10.55,JP,1702249794
500,brookings,44.3114,-96.7984,-1.61,80,0,0.0,US,1702249695
501,kochubey,44.3861,46.5825,2.22,87,100,4.35,RU,1702249795
502,aykhal,66.0,111.5,-28.36,99,100,2.18,RU,1702249795
503,ciudad lazaro cardenas,17.9583,-102.2,27.91,66,100,1.53,MX,1702249786
504,berezovyy,51.6667,135.7,-24.18,65,12,3.47,RU,1702249795
505,dhuusamarreeb,5.535,46.3861,24.76,76,4,5.99,SO,1702249795
506,ebon,4.582,168.6964,27.67,82,16,4.33,MH,1702249795
507,ryazan',55.6744,36.6697,-8.68,95,100,3.48,RU,1702249795
508,filadelfia,39.9523,-75.1638,17.31,95,100,5.66,US,1702249612
509,argo,37.6333,22.7333,10.44,93,100,1.58,GR,1702249796
510,ayacucho,-13.1583,-74.2239,18.67,59,88,2.47,PE,1702249796
511,kitee,62.1,30.15,-8.22,95,99,2.76,FI,1702249796
512,cidreira,-30.1811,-50.2056,19.96,94,97,7.62,BR,1702249796
513,xinqing,48.2333,129.5,-27.2,95,7,2.12,CN,1702249796
514,chemmumiahpet,15.8979,79.3213,19.56,78,57,0.61,IN,1702249796
515,amahai,-3.3333,128.9167,27.99,74,91,1.72,ID,1702249796
516,adis zemen,12.1167,37.7833,14.98,53,7,0.59,ET,1702249797
517,hellertown,40.5795,-75.3407,16.41,95,100,4.12,US,1702249797
518,mrakovo,52.7161,56.6244,-24.45,95,5,1.31,RU,1702249797
519,pestravka,52.405,49.9583,-17.22,90,78,4.29,RU,1702249797
520,poronaysk,49.2167,143.1167,-15.83,78,27,4.35,RU,1702249797
521,qamdo,31.1667,97.2333,-10.18,71,7,2.18,CN,1702249797
522,ghazni,33.5536,68.4269,-0.23,34,47,0.33,AF,1702249797
523,ostersund,63.1792,14.6357,-3.75,86,100,5.66,SE,1702249797
524,amursk,50.2261,136.8994,-21.68,85,23,4.49,RU,1702249798
525,north bend,43.4065,-124.2243,12.92,100,100,2.57,US,1702249798
526,kudymkar,59.0173,54.656,-35.6,100,67,1.13,RU,1702249798
527,tazacorte,28.629,-17.9293,21.75,42,0,4.02,ES,1702249798
528,simpang,-1.2667,104.0833,23.6,98,83,1.05,ID,1702249798
529,plastun,44.7561,136.2939,-16.34,53,0,3.06,RU,1702249798
530,nacala,-14.5428,40.6728,26.91,84,36,3.46,MZ,1702249798
531,zdvinsk,54.7021,78.661,-29.64,98,90,3.14,RU,1702249799
532,vorkuta,67.5,64.0,-24.62,100,100,3.16,RU,1702249799
533,basco,20.4487,121.9702,26.62,80,27,8.03,PH,1702249799
534,aasiaat,68.7098,-52.8699,-4.74,95,100,7.01,GL,1702249799
535,cabedelo,-6.9811,-34.8339,27.37,72,37,3.17,BR,1702249799
536,arenapolis,-14.4503,-56.8461,25.9,77,99,1.77,BR,1702249799
537,petrila,45.45,23.4167,-0.37,94,96,0.92,RO,1702249800
538,oranjemund,-28.55,16.4333,16.07,92,0,4.02,NA,1702249800
539,bamboo flat,11.7,92.7167,25.05,94,20,1.03,IN,1702249800
540,mont-laurier,46.5501,-75.4993,-2.03,98,90,0.89,CA,1702249800
541,lotoshino,56.2267,35.6414,-9.68,93,100,4.35,RU,1702249801
542,gudur,14.1333,79.85,23.0,84,38,2.15,IN,1702249801
543,lubango,-14.9172,13.4925,17.99,82,97,1.35,AO,1702249801
544,roma,43.2128,-75.4557,5.84,96,100,2.57,US,1702249564
545,hami,42.8,93.45,-2.65,71,41,1.63,CN,1702249803
546,santa cruz,-17.8,-63.1667,27.7,69,75,7.2,BO,1702249803
547,delijan,33.9905,50.6838,10.67,37,100,1.65,IR,1702249804
548,bullsbrook,-31.6667,116.0,19.94,48,0,6.17,AU,1702249804
549,reyes,-14.3167,-67.3833,29.05,64,82,0.79,BO,1702249804
550,rethymno,35.3647,24.4714,12.79,79,94,2.72,GR,1702249804
551,pauini,-7.7136,-66.9764,26.28,83,94,1.48,BR,1702249718
552,aswan,24.0934,32.907,21.79,59,63,3.99,EG,1702249805
553,shizunai-furukawacho,42.3339,142.3669,-0.75,61,56,9.33,JP,1702249806
554,rio san juan,19.6439,-70.0763,25.09,77,37,7.01,DO,1702249806
555,itarantim,-15.6597,-40.0656,23.7,74,65,3.33,BR,1702249806
556,pont rouge,48.8833,-72.0825,2.21,91,100,3.27,CA,1702249806
557,el dorado,38.7666,-120.5177,14.65,65,100,0.45,US,1702249807
558,freistadt,48.511,14.5045,4.36,96,71,2.01,AT,1702249807
559,barcelos,41.5388,-8.6151,17.08,92,100,3.38,PT,1702249807
560,isla del bosque,22.7333,-105.85,26.79,48,0,3.79,MX,1702249807
561,shenjiamen,29.9576,122.298,15.0,96,58,3.93,CN,1702249808
562,chernyshevskiy,63.0128,112.4714,-30.96,99,100,1.27,RU,1702249809
563,nuevo baztan,40.3673,-3.2413,10.6,100,67,1.99,ES,1702249809
564,aripuana,-9.1667,-60.6333,24.84,87,97,0.86,BR,1702249809
565,laurel,39.0993,-76.8483,16.03,96,100,2.06,US,1702249809
566,morehead city,34.7229,-76.726,20.03,87,100,7.2,US,1702249550
567,staryye ozinki,51.1786,49.6769,-12.24,64,63,5.75,RU,1702249809
568,nadym,65.5333,72.5167,-31.33,95,75,3.75,RU,1702249810
569,ciudad general teran,25.2667,-99.6833,15.88,31,0,2.56,MX,1702249810
570,mogoytuy,51.2833,114.9167,-30.74,98,5,1.0,RU,1702249810
571,golpazari,40.2847,30.3172,6.42,76,97,1.12,TR,1702249810
572,emerald,-23.5333,148.1667,26.3,54,58,7.37,AU,1702249811
573,westport,41.1415,-73.3579,15.31,92,100,7.72,US,1702249811
574,bridgewater,44.3835,-64.5155,5.93,98,100,2.38,CA,1702249811
575,manado,1.487,124.8455,26.43,89,20,0.51,ID,1702249811
